{
  "clubdata": [
    {
      "webpage": "",
      "latlng": "52.511261, 13.4121599",
      "phonenumber": "902422486",
      "postcode": "10179 Berlin",
      "address": "Neue Jakobstr. 6/7 ",
      "clublink": "BSG Finanzamt Tiergarten",
      "mailaddress": "teny-w@gmx.de",
      "clubname": "BSG Finanzamt Tiergarten"
    },
    {
      "webpage": "",
      "latlng": "52.5818596, 13.3864603",
      "phonenumber": "0160/7483445",
      "postcode": "13156 Berlin",
      "address": "Zingergraben 27 ",
      "clublink": "Volleyballverein V\u00f6lkerfreundschaft Berlin e. V.",
      "mailaddress": "Uwe.Schuster@freenet.de",
      "clubname": "Volleyballverein V\u00f6lkerfreundschaft Berlin e. V."
    },
    {
      "webpage": "",
      "latlng": "51.4667702, 12.0591297",
      "phonenumber": "3452494464",
      "postcode": "06184 D\u00f6lbau",
      "address": "Am Pfaffengraben 17 ",
      "clublink": "Freizeitsportverein Charlottenburg e. V.",
      "mailaddress": "stein.angelika@web.de",
      "clubname": "Freizeitsportverein Charlottenburg e. V."
    },
    {
      "webpage": "www.tcfez.de",
      "latlng": "52.5102501, 13.5076599",
      "phonenumber": "1629842257",
      "postcode": "10315 Berlin",
      "address": "Alt-Friedrichsfelde 10 ",
      "clublink": "Tauchclub fez e.V.",
      "mailaddress": "alicewittmann@web.de",
      "clubname": "Tauchclub fez e.V."
    },
    {
      "webpage": "www.sgi-berlin-reinickendorf.de",
      "latlng": "52.5671082, 13.3096504",
      "phonenumber": "4139405",
      "postcode": "13405 Berlin",
      "address": "Scharnweberstra\u00dfe 81 a ",
      "clublink": "Sch\u00fctzengilde 1972 Berlin Reinickendorf e. V.",
      "mailaddress": "wolfgangphilips@hotmail.de",
      "clubname": "Sch\u00fctzengilde 1972 Berlin Reinickendorf e. V."
    },
    {
      "webpage": "www.sc-gatow.de",
      "latlng": "52.4588318, 13.1312799",
      "phonenumber": "36801609",
      "postcode": "14089 Berlin",
      "address": "Weihenzeller Steig 5 ",
      "clublink": "Sport Club Gatow 1931 e. V.",
      "mailaddress": "BerndMTrepte@gmx.de",
      "clubname": "Sport Club Gatow 1931 e. V."
    },
    {
      "webpage": "www.berlin-city-bouncers.de",
      "latlng": "52.3481598, 14.0459604",
      "phonenumber": "3361734817",
      "postcode": "15517 F\u00fcrstenwalde",
      "address": "Gottfried-B\u00fcrger-Stra\u00dfe 4 ",
      "clublink": "Berlin City Bouncers SC e.V.",
      "mailaddress": "community@berlin-city-bouncers.de",
      "clubname": "Berlin City Bouncers SC e.V."
    },
    {
      "webpage": "www.bwfriedrichshain.de",
      "latlng": "52.551899, 13.4012604",
      "phonenumber": "1731691231",
      "postcode": "10439 Berlin",
      "address": "Isl\u00e4ndische Stra\u00dfe 13 ",
      "clublink": "Sportgemeinschaft Blau-Wei\u00df Friedrichshain e. V.",
      "mailaddress": "philips@bwfriedrichshain.de",
      "clubname": "Sportgemeinschaft Blau-Wei\u00df Friedrichshain e. V."
    },
    {
      "webpage": "",
      "latlng": "52.4607811, 13.3193398",
      "phonenumber": "030-79 70 28 53",
      "postcode": "12163 Berlin",
      "address": "Zimmermannstr. 17 ",
      "clublink": "Sonne 08 Berlin Wannsee e. V.",
      "mailaddress": "helmutnagoya@gmail.com",
      "clubname": "Sonne 08 Berlin Wannsee e. V."
    },
    {
      "webpage": "",
      "latlng": "52.3611603, 13.3092499",
      "phonenumber": "9024-35759",
      "postcode": "14979 Gro\u00dfbeeren",
      "address": "Ringstr. 14 ",
      "clublink": "BSG Tischtennisgemeinschaft der Oberfinanzdirektion Berlin",
      "mailaddress": "jurgen.deckwerth@web.de",
      "clubname": "BSG Tischtennisgemeinschaft der Oberfinanzdirektion Berlin"
    },
    {
      "webpage": "",
      "latlng": "52.4464302, 13.2973299",
      "phonenumber": "8526722",
      "postcode": "12203 Berlin",
      "address": "Margaretenstra\u00dfe 30 a ",
      "clublink": "Kegelsportgemeinschaft des Postamts Berlin-Steglitz",
      "mailaddress": "ksg41@t-online.de",
      "clubname": "Kegelsportgemeinschaft des Postamts Berlin-Steglitz"
    },
    {
      "webpage": "www.sc-rohrwall.de",
      "latlng": "52.5585785, 13.4652395",
      "phonenumber": "304732426",
      "postcode": "13088 Berlin",
      "address": "Liebermannstr. 30h ",
      "clublink": "Segel-Club Rohrwall e. V.",
      "mailaddress": "martin.rosengarten@t-online.de",
      "clubname": "Segel-Club Rohrwall e. V."
    },
    {
      "webpage": "www.club-deportivolatino-berlin.de",
      "latlng": "52.4543495, 13.3286695",
      "phonenumber": "17623623529",
      "postcode": "12167 Berlin",
      "address": "Albrechtstra\u00dfe 109 ",
      "clublink": "Club Deportivo Latino Berlin e. V.",
      "mailaddress": "christian312008@hotmail.de",
      "clubname": "Club Deportivo Latino Berlin e. V."
    },
    {
      "webpage": "",
      "latlng": "52.4180984, 13.5788298",
      "phonenumber": "",
      "postcode": "12527 Berlin",
      "address": "Regattastr. 114-120 ",
      "clublink": "Gesund durchs Leben e.V.",
      "mailaddress": "",
      "clubname": "Gesund durchs Leben e.V."
    },
    {
      "webpage": "freizeitgymnastikverein-bohnsdorf.de",
      "latlng": "52.4043198, 13.5765896",
      "phonenumber": "676 51 64",
      "postcode": "12526 Berlin",
      "address": "Gr\u00fcnfinkenweg 4 ",
      "clublink": "Freizeitgymnastikverein Bohnsdorf e. V.",
      "mailaddress": "",
      "clubname": "Freizeitgymnastikverein Bohnsdorf e. V."
    },
    {
      "webpage": "",
      "latlng": "52.5172005, 13.3803797",
      "phonenumber": "",
      "postcode": "10117 Berlin",
      "address": "Wilhelmstra\u00dfe 69 ",
      "clublink": "ASAF - Berlin e. V.",
      "mailaddress": "",
      "clubname": "ASAF - Berlin e. V."
    },
    {
      "webpage": "",
      "latlng": "52.6256905, 13.2262001",
      "phonenumber": "4382139",
      "postcode": "13503 Berlin",
      "address": "Hennigsdorfer Stra\u00dfe 159 ",
      "clublink": "BSG Tetra Pak Berlin",
      "mailaddress": "Michael.Maurer@tetrapak.com",
      "clubname": "BSG Tetra Pak Berlin"
    },
    {
      "webpage": "dynamo-hoppegarten.de",
      "latlng": "52.5622711, 13.5215502",
      "phonenumber": "3342302035",
      "postcode": "13057 Berlin",
      "address": "Seehausener Stra\u00dfe 46 ",
      "clublink": "Budoverein Dynamo Hoppegarten-Berlin e. V.",
      "mailaddress": "info@dynamo-hoppegarten.de",
      "clubname": "Budoverein Dynamo Hoppegarten-Berlin e. V."
    },
    {
      "webpage": "",
      "latlng": "52.531559, 13.4777899",
      "phonenumber": "972 88 22",
      "postcode": "10367 Berlin",
      "address": "Wei\u00dfenseer Weg 18 ",
      "clublink": "SV Secura Berlin e.V.",
      "mailaddress": "maiwer10@web.de",
      "clubname": "SV Secura Berlin e.V."
    },
    {
      "webpage": "www.vfcb.net",
      "latlng": "52.5562248, 13.2288303",
      "phonenumber": "",
      "postcode": "13599 Berlin",
      "address": "Ruppiner-See-Str. 47 ",
      "clublink": "Veteran Flambeau Club Berlin e.V.",
      "mailaddress": "vfcb@googlegroups.com",
      "clubname": "Veteran Flambeau Club Berlin e.V."
    },
    {
      "webpage": "",
      "latlng": "52.4461403, 13.5057096",
      "phonenumber": "55653329",
      "postcode": "12487 Berlin",
      "address": "Sterndamm 72 ",
      "clublink": "Sportgemeinschaft Gr\u00fcn-Wei\u00df Berlin-Baumschulenweg e. V.",
      "mailaddress": "uwe-gwstar@web.de",
      "clubname": "Sportgemeinschaft Gr\u00fcn-Wei\u00df Berlin-Baumschulenweg e. V."
    },
    {
      "webpage": "",
      "latlng": "52.51607131958008, 13.37697982788086",
      "phonenumber": "",
      "postcode": "13442 Berlin",
      "address": "Postfach 28 02 12 ",
      "clublink": "Okinawa Judo-Karate-Club e. V.",
      "mailaddress": "",
      "clubname": "Okinawa Judo-Karate-Club e. V."
    },
    {
      "webpage": "www.fechtclub-berlin.de",
      "latlng": "52.5378418, 13.4194002",
      "phonenumber": "44017276",
      "postcode": "10435 Berlin",
      "address": "Kollwitzstra\u00dfe 81 ",
      "clublink": "Fechtclub Berlin S\u00fcdwest e. V.",
      "mailaddress": "ra@immorecht.info",
      "clubname": "Fechtclub Berlin S\u00fcdwest e. V."
    },
    {
      "webpage": "",
      "latlng": "52.5857086, 13.3729897",
      "phonenumber": "9162616",
      "postcode": "13158 Berlin",
      "address": "Edelwei\u00dfstra\u00dfe 24 ",
      "clublink": "Finanzsportverein Berlin e.V.",
      "mailaddress": "",
      "clubname": "Finanzsportverein Berlin e.V."
    },
    {
      "webpage": "www.pyongwon.net",
      "latlng": "52.5276108, 13.6391697",
      "phonenumber": "305647025",
      "postcode": "12623 Berlin",
      "address": "Lemkestra\u00dfe 98 b ",
      "clublink": "Pyongwon Marzahn e. V.",
      "mailaddress": "fpyongwontkd@web.de",
      "clubname": "Pyongwon Marzahn e. V."
    },
    {
      "webpage": "www.sv-energie-berlin.de",
      "latlng": "52.4455299, 13.5700903",
      "phonenumber": "6559165",
      "postcode": "12557 Berlin",
      "address": "Gutenbergstra\u00dfe 4 - 5 ",
      "clublink": "Sportverein Energie Berlin e. V.",
      "mailaddress": "energieberlin@t-online.de",
      "clubname": "Sportverein Energie Berlin e. V."
    },
    {
      "webpage": "www.sportfreunde-berlin.de",
      "latlng": "52.5647011, 13.3978577",
      "phonenumber": "0173-351 36 63",
      "postcode": "13187 Berlin",
      "address": "In den Florag\u00e4rten 3 ",
      "clublink": "Sportfreunde Berlin 06 e. V.",
      "mailaddress": "robert.brichta@sportfreunde-berlin.de",
      "clubname": "Sportfreunde Berlin 06 e. V."
    },
    {
      "webpage": "",
      "latlng": "52.4658203, 13.3248997",
      "phonenumber": "851 86 67",
      "postcode": "12163 Berlin",
      "address": "Bornstra\u00dfe 8 ",
      "clublink": "Verein Schm\u00f6ckwitzer Segler e. V.",
      "mailaddress": "detlefney@web.de",
      "clubname": "Verein Schm\u00f6ckwitzer Segler e. V."
    },
    {
      "webpage": "",
      "latlng": "52.5338898, 13.1491899",
      "phonenumber": "",
      "postcode": "13591 Berlin",
      "address": "Oldesloer Weg 30 ",
      "clublink": "Basketball Gemeinschaft Spandau e. V.",
      "mailaddress": "",
      "clubname": "Basketball Gemeinschaft Spandau e. V."
    },
    {
      "webpage": "www.perfect-taekwondo-ev.de",
      "latlng": "52.4224892, 13.5347204",
      "phonenumber": "15111878326",
      "postcode": "12524 Berlin",
      "address": "Semmelwei\u00dfstr. 39b ",
      "clublink": "Perfect Taekwondo e. V.",
      "mailaddress": "perfecttaekwondo@web.de",
      "clubname": "Perfect Taekwondo e. V."
    },
    {
      "webpage": "www.1scb.com",
      "latlng": "52.5568085, 13.3036499",
      "phonenumber": "17644409772",
      "postcode": "13405 Berlin",
      "address": "Rue Charles Calmette 11 d ",
      "clublink": "1. Squash Club Berlin e.V.",
      "mailaddress": "hans.sucker@web.de",
      "clubname": "1. Squash Club Berlin e.V."
    },
    {
      "webpage": "www.bsgbareinickendorf.de",
      "latlng": "52.5889816, 13.3240995",
      "phonenumber": "",
      "postcode": "13437 Berlin",
      "address": "Eichborndamm 215-239 ",
      "clublink": "BSG Bezirksamt Reinickendorf",
      "mailaddress": "bsgbar@reinickendorf.berlin.de",
      "clubname": "BSG Bezirksamt Reinickendorf"
    },
    {
      "webpage": "",
      "latlng": "52.5137901, 13.1723003",
      "phonenumber": "",
      "postcode": "13593 Berlin",
      "address": "Steinmeisterweg 24 ",
      "clublink": "Anglerverein Fr\u00fchauf Spandau 1928 e. V.",
      "mailaddress": "scrumpyjack@web.de",
      "clubname": "Anglerverein Fr\u00fchauf Spandau 1928 e. V."
    },
    {
      "webpage": "",
      "latlng": "52.5315094, 13.3529902",
      "phonenumber": "0152-2999 4618",
      "postcode": "10557 Berlin",
      "address": "Kruppstr. 5 ",
      "clublink": "Bouledozer e.V.",
      "mailaddress": "andre_starkloff@gmx.de",
      "clubname": "Bouledozer e.V."
    },
    {
      "webpage": "",
      "latlng": "52.4845886, 13.4401999",
      "phonenumber": "1622153962",
      "postcode": "12045 Berlin",
      "address": "Elbestra\u00dfe 30 ",
      "clublink": "Aktivist Runder Ball",
      "mailaddress": "aktivistrunderball@googlemail.com",
      "clubname": "Aktivist Runder Ball"
    },
    {
      "webpage": "www.djk-westen23.de",
      "latlng": "52.3989487, 13.4187298",
      "phonenumber": "030-7459957",
      "postcode": "12309 Berlin",
      "address": "Krontalstra\u00dfe 82 ",
      "clublink": "Sportvereinigung Deutsche Jugendkraft Westen zu Berlin e. V.",
      "mailaddress": "vorstand@djk-westen23.de",
      "clubname": "Sportvereinigung Deutsche Jugendkraft Westen zu Berlin e. V."
    },
    {
      "webpage": "www.sgwendenschloss.de",
      "latlng": "52.5039482, 13.5208702",
      "phonenumber": "515 31 147",
      "postcode": "10319 Berlin",
      "address": "Am Tierpark 41 ",
      "clublink": "Segelgemeinschaft Wendenschloss e. V.",
      "mailaddress": "inis.adloff@gmx.de",
      "clubname": "Segelgemeinschaft Wendenschloss e. V."
    },
    {
      "webpage": "www.btv-olympia.de",
      "latlng": "52.5313301, 13.4489603",
      "phonenumber": "423 06 87",
      "postcode": "10407 Berlin",
      "address": "Paul-Heyse-Stra\u00dfe 25 ",
      "clublink": "Berliner Turn-Verein Olympia e. V.",
      "mailaddress": "info@btv-olympia.de",
      "clubname": "Berliner Turn-Verein Olympia e. V."
    },
    {
      "webpage": "",
      "latlng": "52.4961815, 13.4548597",
      "phonenumber": "51503217",
      "postcode": "12435 Berlin",
      "address": "Eichenstra\u00dfe 3 A ",
      "clublink": "BSV/VEAG-Berlin e. V.",
      "mailaddress": "andrea.eichler@50hertz.com",
      "clubname": "BSV/VEAG-Berlin e. V."
    },
    {
      "webpage": "www.wsv22ev.de",
      "latlng": "52.5100594, 13.2142696",
      "phonenumber": "3612817",
      "postcode": "13595 Berlin",
      "address": "Heerstra\u00dfe 168 ",
      "clublink": "Wander-Segler-Verein 1922 e. V.",
      "mailaddress": "vorstand@wsv22ev.de",
      "clubname": "Wander-Segler-Verein 1922 e. V."
    },
    {
      "webpage": "www.kietz-fuer-kids-freizeitsport.de",
      "latlng": "52.5696106, 13.4933901",
      "phonenumber": "962 099 28/920 11 05",
      "postcode": "13051 Berlin",
      "address": "Zum Hechtgraben 1 ",
      "clublink": "Kietz f\u00fcr Kids - Freizeitsport e. V.",
      "mailaddress": "info@kietz-fuer-kids-freizeitsport.de",
      "clubname": "Kietz f\u00fcr Kids - Freizeitsport e. V."
    },
    {
      "webpage": "www.sport-friedrichstadt.de",
      "latlng": "52.5313301, 13.4489603",
      "phonenumber": "53604968",
      "postcode": "10407 Berlin",
      "address": "Paul-Heyse-Stra\u00dfe 25 ",
      "clublink": "Sportverein Berlin-Friedrichstadt e. V.",
      "mailaddress": "vorstand-1@sport-friedrichstadt.de",
      "clubname": "Sportverein Berlin-Friedrichstadt e. V."
    },
    {
      "webpage": "www.vsaw.de",
      "latlng": "52.4258614, 13.1615",
      "phonenumber": "8052006",
      "postcode": "14109 Berlin",
      "address": "Am Gro\u00dfen Wannsee 22-26 ",
      "clublink": "Verein Seglerhaus am Wannsee e. V.",
      "mailaddress": "vsaw@vsaw.de",
      "clubname": "Verein Seglerhaus am Wannsee e. V."
    },
    {
      "webpage": "",
      "latlng": "52.5256615, 13.198",
      "phonenumber": "030/9236166",
      "postcode": "13581 Berlin",
      "address": "Krowelstra\u00dfe 33 ",
      "clublink": "Hard Lines Berlin e. V.",
      "mailaddress": "hard-lines-berlin@gmx.de",
      "clubname": "Hard Lines Berlin e. V."
    },
    {
      "webpage": "",
      "latlng": "52.6204681, 13.3971796",
      "phonenumber": "91320220",
      "postcode": "13159 Berlin",
      "address": "Hauptstra\u00dfe 55 ",
      "clublink": "Blankenfelder Reiterverein e. V.",
      "mailaddress": "",
      "clubname": "Blankenfelder Reiterverein e. V."
    },
    {
      "webpage": "",
      "latlng": "53.3992195, 14.1251802",
      "phonenumber": "3974289056",
      "postcode": "17326 Br\u00fcsow",
      "address": "Karl-Liebknecht-Platz 8 ",
      "clublink": "Ring Berliner Einzelpaddler e. V.",
      "mailaddress": "handtheater@web.de",
      "clubname": "Ring Berliner Einzelpaddler e. V."
    },
    {
      "webpage": "",
      "latlng": "52.5922394, 13.3587599",
      "phonenumber": "15731853595",
      "postcode": "13439 Berlin",
      "address": "Dannenwalder Weg 158 ",
      "clublink": "TITAN e. V.",
      "mailaddress": "gwhitner@yahoo.de",
      "clubname": "TITAN e. V."
    },
    {
      "webpage": "",
      "latlng": "52.4516792, 13.1442204",
      "phonenumber": "3653063",
      "postcode": "14089 Berlin",
      "address": "Sakrower Kirch weg 6 ",
      "clublink": "Wassersportfreunde Imchen e. V.",
      "mailaddress": "",
      "clubname": "Wassersportfreunde Imchen e. V."
    },
    {
      "webpage": "",
      "latlng": "52.5542412, 13.38344",
      "phonenumber": "494 19 74",
      "postcode": "13357 Berlin",
      "address": "Prinzenallee 15 ",
      "clublink": "BSG TEMA-Fischer-Union",
      "mailaddress": "",
      "clubname": "BSG TEMA-Fischer-Union"
    },
    {
      "webpage": "www.marameo.de",
      "latlng": "52.5121307, 13.4105396",
      "phonenumber": "282 34 55",
      "postcode": "10179 Berlin",
      "address": "Wallstra\u00dfe 32 ",
      "clublink": "Marameo Berlin e.V.",
      "mailaddress": "post@marameo.de",
      "clubname": "Marameo Berlin e.V."
    },
    {
      "webpage": "",
      "latlng": "52.4811592, 13.4505701",
      "phonenumber": "55952427",
      "postcode": "12059 Berlin",
      "address": "Ulsterstra\u00dfe 3 ",
      "clublink": "Aufschlag von unten e. V.",
      "mailaddress": "berlin1981@gmx.de",
      "clubname": "Aufschlag von unten e. V."
    },
    {
      "webpage": "MVMahlsdorf.de",
      "latlng": "52.5165901, 13.6322203",
      "phonenumber": "1723522479",
      "postcode": "12623 Berlin",
      "address": "Kaulbachstra\u00dfe 8 a ",
      "clublink": "Motorsportverein Mahlsdorf e. V. (DMV)",
      "mailaddress": "Stenzel.MVM@googlemail.com",
      "clubname": "Motorsportverein Mahlsdorf e. V. (DMV)"
    },
    {
      "webpage": "",
      "latlng": "52.4991798, 13.4104605",
      "phonenumber": "",
      "postcode": "10969 Berlin",
      "address": "Wassertorstr. 67 ",
      "clublink": "Haifischclub trifft Breitensport e.V.",
      "mailaddress": "",
      "clubname": "Haifischclub trifft Breitensport e.V."
    },
    {
      "webpage": "www.scspandau.de",
      "latlng": "52.5688896, 13.2288704",
      "phonenumber": "4361919",
      "postcode": "13505 Berlin",
      "address": "Friederikestra\u00dfe 25 ",
      "clublink": "Segel-Club Spandau e. V.",
      "mailaddress": "rafrost@web.de",
      "clubname": "Segel-Club Spandau e. V."
    },
    {
      "webpage": "rehasport-berlin.de",
      "latlng": "52.514389, 13.2843904",
      "phonenumber": "030 - 306 78 0",
      "postcode": "14059 Berlin",
      "address": "Epiphanienweg 6 ",
      "clublink": "Rehasport Berlin e. V.",
      "mailaddress": "info@rehasport-berlin.de",
      "clubname": "Rehasport Berlin e. V."
    },
    {
      "webpage": "",
      "latlng": "52.4142113, 13.6577702",
      "phonenumber": "",
      "postcode": "12559 Berlin",
      "address": "M\u00fcggelheimer Damm 244 ",
      "clublink": "M\u00fcggelheimer REHA-FIT e. V.",
      "mailaddress": "",
      "clubname": "M\u00fcggelheimer REHA-FIT e. V."
    },
    {
      "webpage": "",
      "latlng": "52.5616684, 13.4895601",
      "phonenumber": "1795060290",
      "postcode": "13051 Berlin",
      "address": "Feldtmannstr. 61A ",
      "clublink": "Sportgemeinschaft Traktor Wei\u00dfensee e. V.",
      "mailaddress": "traktor-weissensee@gmx.de",
      "clubname": "Sportgemeinschaft Traktor Wei\u00dfensee e. V."
    },
    {
      "webpage": "www.riho-verein.de",
      "latlng": "52.4007607, 13.6253796",
      "phonenumber": "675 85 50",
      "postcode": "12527 Berlin",
      "address": "Sportpromenade 17 ",
      "clublink": "Richtershorner Ruderverein e. V.",
      "mailaddress": "info@riho-verein.de",
      "clubname": "Richtershorner Ruderverein e. V."
    },
    {
      "webpage": "",
      "latlng": "52.4466782, 13.4549904",
      "phonenumber": "",
      "postcode": "12359 Berlin",
      "address": "Buschkrugallee 203 ",
      "clublink": "Sporting Mutante",
      "mailaddress": "",
      "clubname": "Sporting Mutante"
    },
    {
      "webpage": "www.sg-nordring.de",
      "latlng": "52.6072197, 13.4199495",
      "phonenumber": "47487051",
      "postcode": "13127 Berlin",
      "address": "Hugenottenplatz 4 ",
      "clublink": "Sportgemeinschaft Nordring e. V.",
      "mailaddress": "sg-nordring@t-online.de",
      "clubname": "Sportgemeinschaft Nordring e. V."
    },
    {
      "webpage": "www.cnft-berlin.de",
      "latlng": "52.5924911, 13.26124",
      "phonenumber": "434 40 17",
      "postcode": "13505 Berlin",
      "address": "Schwarzer Weg 31 ",
      "clublink": "Club Nautique Francais de Tegel e. V.",
      "mailaddress": "CNFT@arcor.de",
      "clubname": "Club Nautique Francais de Tegel e. V."
    },
    {
      "webpage": "",
      "latlng": "52.5509796, 13.34729",
      "phonenumber": "17657381515",
      "postcode": "13351 Berlin",
      "address": "Kameruner Stra\u00dfe 6 ",
      "clublink": "Schiller2zero e. V.",
      "mailaddress": "2zeroschiller@googlemail.com",
      "clubname": "Schiller2zero e. V."
    },
    {
      "webpage": "www.berlin-wizards.de",
      "latlng": "52.4819908, 13.28759",
      "phonenumber": "17622510596",
      "postcode": "14193 Berlin",
      "address": "Ilmenauer Str. 3 ",
      "clublink": "Baseball- und Softballverein Berlin Wizards e. V.",
      "mailaddress": "vorstand@berlin-wizards.de",
      "clubname": "Baseball- und Softballverein Berlin Wizards e. V."
    },
    {
      "webpage": "",
      "latlng": "52.4298096, 13.4953203",
      "phonenumber": "6637070",
      "postcode": "12357 Berlin",
      "address": "Krokusstra\u00dfe 9 ",
      "clublink": "BSG Dino-Taxi",
      "mailaddress": "info@dinotaxi.de",
      "clubname": "BSG Dino-Taxi"
    },
    {
      "webpage": "",
      "latlng": "52.5470009, 13.5569496",
      "phonenumber": "0159-04126785, 0177-7457093",
      "postcode": "12679 Berlin",
      "address": "Marzahner Promenade 55 ",
      "clublink": "Fit und Fun Marzahn e.V.",
      "mailaddress": "seid@vsj-berlin.de",
      "clubname": "Fit und Fun Marzahn e.V."
    },
    {
      "webpage": "",
      "latlng": "52.4410019, 13.2761002",
      "phonenumber": "8122592",
      "postcode": "14169 Berlin",
      "address": "Schlettstadter Stra\u00dfe 101 ",
      "clublink": "Freizeitsportverein Dahlemer Delphine e. V.",
      "mailaddress": "dr.janmartin@freenet.de",
      "clubname": "Freizeitsportverein Dahlemer Delphine e. V."
    },
    {
      "webpage": "http://www.vwg-berlin.de",
      "latlng": "52.5047417, 13.2109604",
      "phonenumber": "30112717",
      "postcode": "14055 Berlin",
      "address": "Havelchaussee 115 ",
      "clublink": "Versehrten-Wassersport-Gemeinschaft",
      "mailaddress": "kontakt@vwg-berlin.de",
      "clubname": "Versehrten-Wassersport-Gemeinschaft"
    },
    {
      "webpage": "",
      "latlng": "52.3965302, 13.3810797",
      "phonenumber": "745 50 34",
      "postcode": "12307 Berlin",
      "address": "Schichauweg 49 ",
      "clublink": "L\u00e4ndlicher Reiterverein Lichtenrade e. V.",
      "mailaddress": "lrvlichtenrade@aol.com",
      "clubname": "L\u00e4ndlicher Reiterverein Lichtenrade e. V."
    },
    {
      "webpage": "",
      "latlng": "52.555481, 13.3748503",
      "phonenumber": "1791123966",
      "postcode": "13357 Berlin",
      "address": "Schwedenstra\u00dfe 14 Hinterhof ",
      "clublink": "Ideal Sch\u00fctzenverein e. V.",
      "mailaddress": "",
      "clubname": "Ideal Sch\u00fctzenverein e. V."
    },
    {
      "webpage": "www.rrc-spreeathen.de",
      "latlng": "52.5560913, 13.4295502",
      "phonenumber": "4731213",
      "postcode": "13086 Berlin",
      "address": "Prenzlauer Promenade 23 ",
      "clublink": "Rock 'n' Roll-Club Spreeathen Berlin e. V.",
      "mailaddress": "info@rrc-spreeathen.de",
      "clubname": "Rock 'n' Roll-Club Spreeathen Berlin e. V."
    },
    {
      "webpage": "",
      "latlng": "52.4703903, 13.3242903",
      "phonenumber": "0173-627 11 61",
      "postcode": "12161 Berlin",
      "address": "Stubenrauchstr. 63 ",
      "clublink": "Tai Chi Chuan u. Qi Gong Forum Berlin e.V.",
      "mailaddress": "henrike.lindemann@gmx.de",
      "clubname": "Tai Chi Chuan u. Qi Gong Forum Berlin e.V."
    },
    {
      "webpage": "www.sv-buchholz.de",
      "latlng": "52.6030617, 13.4332504",
      "phonenumber": "34338015",
      "postcode": "13127 Berlin",
      "address": "Chamissostra\u00dfe 9-11 ",
      "clublink": "Sportverein Buchholz e. V.",
      "mailaddress": "info@sv-buchholz.de",
      "clubname": "Sportverein Buchholz e. V."
    },
    {
      "webpage": "",
      "latlng": "52.4955902, 13.3314896",
      "phonenumber": "21254444",
      "postcode": "10719 Berlin",
      "address": "Bundesallee 210 ",
      "clublink": "Investitionsbank Berlin Betriebssportgemeinschaft e. V.",
      "mailaddress": "michael.bomke@ibb.de",
      "clubname": "Investitionsbank Berlin Betriebssportgemeinschaft e. V."
    },
    {
      "webpage": "",
      "latlng": "52.5032692, 13.3595695",
      "phonenumber": "90171-685",
      "postcode": "10785 Berlin",
      "address": "Magdeburger Platz 1 ",
      "clublink": "Freizeitsportgemeinschaft Arbeitsgericht Berlin e.V.",
      "mailaddress": "augustin@larbg.berlin.de",
      "clubname": "Freizeitsportgemeinschaft Arbeitsgericht Berlin e.V."
    },
    {
      "webpage": "www.berlineramateure.de",
      "latlng": "52.4903488, 13.4260998",
      "phonenumber": "702 434 35",
      "postcode": "12047 Berlin",
      "address": "Hobrechtstr. 62 ",
      "clublink": "Sport Club Berliner Amateure 1920 e.V.",
      "mailaddress": "berlineramateure@aol.com",
      "clubname": "Sport Club Berliner Amateure 1920 e.V."
    },
    {
      "webpage": "",
      "latlng": "52.4657211, 13.3781004",
      "phonenumber": "",
      "postcode": "12013 Berlin",
      "address": "Alt-Tempelhof 61 ",
      "clublink": "Limalama Deutschland e.V.",
      "mailaddress": "sergio.rih@gmail.com",
      "clubname": "Limalama Deutschland e.V."
    },
    {
      "webpage": "www.sv-adler-berlin.de",
      "latlng": "52.4139786, 13.3159304",
      "phonenumber": "030 / 7120 1566",
      "postcode": "12207 Berlin",
      "address": "Fahrenheitstr. 10 ",
      "clublink": "Sportverein Adler Berlin 1950 e.V.",
      "mailaddress": "info@sv-adler-berlin.de",
      "clubname": "Sportverein Adler Berlin 1950 e.V."
    },
    {
      "webpage": "",
      "latlng": "52.5587997, 13.2146702",
      "phonenumber": "35504490",
      "postcode": "13587 Berlin",
      "address": "Am Maselakepark 50 ",
      "clublink": "Angler-Verein Charlottenburg e. V.",
      "mailaddress": "",
      "clubname": "Angler-Verein Charlottenburg e. V."
    },
    {
      "webpage": "",
      "latlng": "52.4112396, 13.4786501",
      "phonenumber": "",
      "postcode": "12355 Berlin",
      "address": "Ascherslebener Weg 42 ",
      "clublink": "BSG Blau-Wei\u00df Mariendorfer Weg",
      "mailaddress": "",
      "clubname": "BSG Blau-Wei\u00df Mariendorfer Weg"
    },
    {
      "webpage": "rixdorfersv.de",
      "latlng": "52.4765396, 13.4512596",
      "phonenumber": "621 89 26",
      "postcode": "12059 Berlin",
      "address": "Sonnenallee 181 ",
      "clublink": "Rixdorfer SV Berlin e. V.",
      "mailaddress": "rixdorfersv@freenet.de",
      "clubname": "Rixdorfer SV Berlin e. V."
    },
    {
      "webpage": "",
      "latlng": "52.5281181, 13.4132004",
      "phonenumber": "20214157",
      "postcode": "10119 Berlin",
      "address": "Torstra\u00dfe 23 ",
      "clublink": "FC Gl\u00fcck Auf Utopia Berlin 2010 e. V.",
      "mailaddress": "fcglueckaufberlin@gmail.com",
      "clubname": "FC Gl\u00fcck Auf Utopia Berlin 2010 e. V."
    },
    {
      "webpage": "www.kimura-karate.de",
      "latlng": "52.5693512, 13.51717",
      "phonenumber": "17663217435",
      "postcode": "13055 Berlin",
      "address": "Grevesm\u00fchlener Stra\u00dfe 24 ",
      "clublink": "Kimura Shukokai Karate Berlin Wei\u00dfensee",
      "mailaddress": "",
      "clubname": "Kimura Shukokai Karate Berlin Wei\u00dfensee"
    },
    {
      "webpage": "",
      "latlng": "52.6150017, 13.23034",
      "phonenumber": "4317742",
      "postcode": "13503 Berlin",
      "address": "Osterwicker Steig 11 a ",
      "clublink": "Sportfischer-Verein Sandhausen e. V.",
      "mailaddress": "",
      "clubname": "Sportfischer-Verein Sandhausen e. V."
    },
    {
      "webpage": "www.sv-aalemann.de",
      "latlng": "52.5744781, 13.2200003",
      "phonenumber": "80922985",
      "postcode": "13587 Berlin",
      "address": "Rustweg 28 B ",
      "clublink": "Sportverein Spandau Aalemann e.V.",
      "mailaddress": "vorstand@sv-aalemann.de",
      "clubname": "Sportverein Spandau Aalemann e.V."
    },
    {
      "webpage": "www.SG-NARVA.de",
      "latlng": "52.5024986, 13.45714",
      "phonenumber": "2917588",
      "postcode": "10245 Berlin",
      "address": "Modersohnstra\u00dfe 55 ",
      "clublink": "Sportgemeinschaft NARVA Berlin e. V.",
      "mailaddress": "handball@SG-NARVA.de",
      "clubname": "Sportgemeinschaft NARVA Berlin e. V."
    },
    {
      "webpage": "https://fontane91.de",
      "latlng": "52.5828514, 13.5636396",
      "phonenumber": "206 42 902",
      "postcode": "16356 Ahrensfelde",
      "address": "Fontanestra\u00dfe 14 ",
      "clublink": "Wanderverein Fontane '91 Berlin e. V.",
      "mailaddress": "info@fontane91.de",
      "clubname": "Wanderverein Fontane '91 Berlin e. V."
    },
    {
      "webpage": "gareimann@googlemail.com",
      "latlng": "52.5214195, 13.3430901",
      "phonenumber": "030/9018 42432",
      "postcode": "10557 Berlin",
      "address": "Flensburger Str. 28 ",
      "clublink": "Kanuclub Haselhorst e. V.",
      "mailaddress": "vorstand@kanu-club-haselhorst.sporton.de",
      "clubname": "Kanuclub Haselhorst e. V."
    },
    {
      "webpage": "www.wassersportclub-rauchfangswerder.de",
      "latlng": "52.5125809, 13.4945498",
      "phonenumber": "6756487",
      "postcode": "10365 Berlin",
      "address": "Hubertusstra\u00dfe 3 ",
      "clublink": "Wassersportclub Rauchfangswerder e. V.",
      "mailaddress": "wsc@wassersportclub-rauchfangswerder.de",
      "clubname": "Wassersportclub Rauchfangswerder e. V."
    },
    {
      "webpage": "www.eifelverein-berlin.de",
      "latlng": "52.5532913, 13.1488304",
      "phonenumber": "37489121",
      "postcode": "13589 Berlin",
      "address": "Flurende 57 ",
      "clublink": "Eifelverein Berlin e. V.",
      "mailaddress": "hschmidt@eifelverein-berlin.de",
      "clubname": "Eifelverein Berlin e. V."
    },
    {
      "webpage": "",
      "latlng": "52.5354004, 13.2724304",
      "phonenumber": "17696790063",
      "postcode": "13629 Berlin",
      "address": "Hefnersteig 3 ",
      "clublink": "FC POLONIA BERLIN e. V.",
      "mailaddress": "vorstand@fc-polonia.com",
      "clubname": "FC POLONIA BERLIN e. V."
    },
    {
      "webpage": "www.asv-am-langen-see.de",
      "latlng": "52.4515419, 13.61724",
      "phonenumber": "1635488756",
      "postcode": "12587 Berlin",
      "address": "A\u00dfmannstra\u00dfe 6 c ",
      "clublink": "Angelsportverein am Langen See e. V.",
      "mailaddress": "hans-juergen.schaechter@cristalux.de",
      "clubname": "Angelsportverein am Langen See e. V."
    },
    {
      "webpage": "www.scahoi-berlin.de",
      "latlng": "52.3758507, 13.2177601",
      "phonenumber": "1723904230",
      "postcode": "14532 Stahnsdorf",
      "address": "Luisenstra\u00dfe 60 ",
      "clublink": "Segel-Club Ahoi e. V.",
      "mailaddress": "tpatzelt@t-online.de",
      "clubname": "Segel-Club Ahoi e. V."
    },
    {
      "webpage": "www.sscbg.de",
      "latlng": "52.3957214, 13.6357603",
      "phonenumber": "674 34 58",
      "postcode": "12527 Berlin",
      "address": "Rohrwallallee 11 ",
      "clublink": "Seesportclub Berlin-Gr\u00fcnau e. V.",
      "mailaddress": "sscbg@berlin.de",
      "clubname": "Seesportclub Berlin-Gr\u00fcnau e. V."
    },
    {
      "webpage": "www.lebens-wert.berlin",
      "latlng": "52.5525208, 13.5004902",
      "phonenumber": "1723958484",
      "postcode": "13053 Berlin",
      "address": "Gembitzer Stra\u00dfe 19 ",
      "clublink": "Lebens-Wert-Berlin e. V.",
      "mailaddress": "info@lebens-wert.berlin",
      "clubname": "Lebens-Wert-Berlin e. V."
    },
    {
      "webpage": "www.bsg-wasser75.de",
      "latlng": "52.4318199, 13.1865597",
      "phonenumber": "030/ 80 48 27 00; 03",
      "postcode": "14129 Berlin",
      "address": "Kronprinzessinnenweg 140 ",
      "clublink": "BSG Wasser 75 e.V.",
      "mailaddress": "geschaeftsstelle@bsg-wasser75.de",
      "clubname": "BSG Wasser 75 e.V."
    },
    {
      "webpage": "www.wsv1921.de",
      "latlng": "52.3883018, 13.6401796",
      "phonenumber": "6758530",
      "postcode": "12527 Berlin",
      "address": "Rohrwallallee 87-89 ",
      "clublink": "Wassersport-Verein 1921 e.V.",
      "mailaddress": "wm@wsv1921.de",
      "clubname": "Wassersport-Verein 1921 e.V."
    },
    {
      "webpage": "http://www.sttkberlin.de",
      "latlng": "52.44524, 13.3253202",
      "phonenumber": "030 771 90 881",
      "postcode": "12167 Berlin",
      "address": "Dalandweg 7 ",
      "clublink": "Steglitzer Tischtennis Klub Berlin",
      "mailaddress": "christian@sttkberlin.de",
      "clubname": "Steglitzer Tischtennis Klub Berlin"
    },
    {
      "webpage": "www.fc-internationale-berlin.de",
      "latlng": "52.4717712, 13.3553839",
      "phonenumber": "70509884",
      "postcode": "12157 Berlin",
      "address": "Vorarlberger Damm 38 ",
      "clublink": "Fu\u00dfball Club Internationale Berlin 1980 e. V.",
      "mailaddress": "inter@berlin.de",
      "clubname": "Fu\u00dfball Club Internationale Berlin 1980 e. V."
    },
    {
      "webpage": "sgnarva.ag.vu",
      "latlng": "52.4446793, 13.5634604",
      "phonenumber": "22324793",
      "postcode": "12557 Berlin",
      "address": "Westendstra\u00dfe 15 ",
      "clublink": "Ruderclub NARVA-Oberspree e. V.",
      "mailaddress": "narvalutz@web.de",
      "clubname": "Ruderclub NARVA-Oberspree e. V."
    },
    {
      "webpage": "",
      "latlng": "52.4460106, 13.5050001",
      "phonenumber": "1721075090",
      "postcode": "12487 Berlin",
      "address": "Sterndamm 82 ",
      "clublink": "Verein f\u00fcr Asiatische Kampfk\u00fcnste e. V.",
      "mailaddress": "",
      "clubname": "Verein f\u00fcr Asiatische Kampfk\u00fcnste e. V."
    },
    {
      "webpage": "www.zehlendorf88.de",
      "latlng": "52.4420509, 13.2513199",
      "phonenumber": "813 72 29",
      "postcode": "14163 Berlin",
      "address": "Sven-Hedin-Stra\u00dfe 85 ",
      "clublink": "Zehlendorfer Turn- und Sportverein von 1888 e. V.",
      "mailaddress": "info@zehlendorf88.de",
      "clubname": "Zehlendorfer Turn- und Sportverein von 1888 e. V."
    },
    {
      "webpage": "www.horzelbuben.de",
      "latlng": "52.5125198, 13.4116402",
      "phonenumber": "27909746",
      "postcode": "10179 Berlin",
      "address": "Inselstra\u00dfe 8 a ",
      "clublink": "Sektion Brandenburger Tor des Deutschen Alpenvereins",
      "mailaddress": "LutzPrill@web.de",
      "clubname": "Sektion Brandenburger Tor des Deutschen Alpenvereins"
    },
    {
      "webpage": "http://www.bsc-spandau.de",
      "latlng": "52.547554, 13.2336626",
      "phonenumber": "1637176787",
      "postcode": "13599 Berlin",
      "address": "L\u00fcnette 12 ",
      "clublink": "Biber Sport Club Spandau",
      "mailaddress": "Vorstand@bsc-spandau.de",
      "clubname": "Biber Sport Club Spandau"
    },
    {
      "webpage": "",
      "latlng": "52.5179634, 13.6322651",
      "phonenumber": "",
      "postcode": "12623 Berlin",
      "address": "Landsberger Stra\u00dfe 52 ",
      "clublink": "Ballspielverein (BSV) Schwarz-Gelb 94 e. V.",
      "mailaddress": "patrice.streuber@gmail.com",
      "clubname": "Ballspielverein (BSV) Schwarz-Gelb 94 e. V."
    },
    {
      "webpage": "www.berlinerblues.com",
      "latlng": "52.5211983, 13.3283901",
      "phonenumber": "683202220",
      "postcode": "10587 Berlin",
      "address": "Franklinstra\u00dfe 13 a ",
      "clublink": "EHC Berlin Blues e. V.",
      "mailaddress": "europe@tchernovandio.com",
      "clubname": "EHC Berlin Blues e. V. "
    },
    {
      "webpage": "www.jugger-berlin.de",
      "latlng": "52.5432281, 13.4360504",
      "phonenumber": "0171-324 96 86",
      "postcode": "10409 Berlin",
      "address": "Rietzestra\u00dfe 6 ",
      "clublink": "Jugger e. V.",
      "mailaddress": "vorstand@jugger-berlin.de",
      "clubname": "Jugger e. V."
    },
    {
      "webpage": "",
      "latlng": "52.4988708, 13.3895102",
      "phonenumber": "7442967",
      "postcode": "10963 Berlin",
      "address": "Wilhelmstra\u00dfe 1 ",
      "clublink": "BSG Allgemeine Ortskrankenkasse Nordost e.V.",
      "mailaddress": "wolfganghorstkoch@googlemail.com",
      "clubname": "BSG Allgemeine Ortskrankenkasse Nordost e.V."
    },
    {
      "webpage": "www.kanu-verein-falke.de",
      "latlng": "52.4197807, 13.1735802",
      "phonenumber": "86303440",
      "postcode": "14109 Berlin",
      "address": "K\u00f6nigstra\u00dfe 69 ",
      "clublink": "Kanu-Verein Falke e. V.",
      "mailaddress": "aw@kvfalke.de",
      "clubname": "Kanu-Verein Falke e. V."
    },
    {
      "webpage": "www.Vfm-Berlin.de",
      "latlng": "52.5987816, 13.3046103",
      "phonenumber": "030/4332284",
      "postcode": "12307 Berlin",
      "address": "Egidystr. 2 ",
      "clublink": "Verein f\u00fcr Minigolf Berlin e. V.",
      "mailaddress": "vfm-berlin@gmx.de",
      "clubname": "Verein f\u00fcr Minigolf Berlin e. V."
    },
    {
      "webpage": "www.tolf.de",
      "latlng": "52.5187798, 13.4611702",
      "phonenumber": "030-79702768",
      "postcode": "10247 Berlin",
      "address": "B\u00e4nschstr. 22 ",
      "clublink": "Tolf Berlin e.V.",
      "mailaddress": "info@tolf.de",
      "clubname": "Tolf Berlin e.V."
    },
    {
      "webpage": "www.tv-frohnau.de",
      "latlng": "52.6425705, 13.2889299",
      "phonenumber": "4016879",
      "postcode": "13465 Berlin",
      "address": "Sch\u00f6nflie\u00dfer Stra\u00dfe. 11 A ",
      "clublink": "Tennis-Vereinigung Frohnau e.V.",
      "mailaddress": "club@tv-frohnau.de",
      "clubname": "Tennis-Vereinigung Frohnau e.V."
    },
    {
      "webpage": "www.db-sport.de",
      "latlng": "52.51688, 13.3916597",
      "phonenumber": "34071782",
      "postcode": "10117 Berlin",
      "address": "Unter den Linden 13-15 ",
      "clublink": "SV Deutsche Bank Deutschland e. V.",
      "mailaddress": "andre.hamann@db.com",
      "clubname": "SV Deutsche Bank Deutschland e. V."
    },
    {
      "webpage": "",
      "latlng": "52.5494308, 13.3492298",
      "phonenumber": "183054835",
      "postcode": "13353 Berlin",
      "address": "Seestra\u00dfe 101 ",
      "clublink": "Leistungssportclub Berlin e. V.",
      "mailaddress": "adrian.saupe@web.de",
      "clubname": "Leistungssportclub Berlin e. V."
    },
    {
      "webpage": "www.bwh-berlin.de",
      "latlng": "52.5620003, 13.5134115",
      "phonenumber": "92373497",
      "postcode": "13053 Berlin",
      "address": "Am Breiten Luch 21 ",
      "clublink": "Sportgemeinschaft Blau-Weiss Hohensch\u00f6nhausen e. V.",
      "mailaddress": "kontakt@bwh-berlin.de",
      "clubname": "Sportgemeinschaft Blau-Weiss Hohensch\u00f6nhausen e. V."
    },
    {
      "webpage": "",
      "latlng": "52.4594002, 13.3421698",
      "phonenumber": "85746262",
      "postcode": "12169 Berlin",
      "address": "Altmarkstr. 26 ",
      "clublink": "1. Softball Club Berlin e.V.",
      "mailaddress": "play@hangarounds.de",
      "clubname": "1. Softball Club Berlin e.V."
    },
    {
      "webpage": "www.tsvstaaken.de",
      "latlng": "52.5377998, 13.15448",
      "phonenumber": "15779447608",
      "postcode": "13591 Berlin",
      "address": "Stra\u00dfe 331 Nr. 5 ",
      "clublink": "Turn- und Sportverein Staaken 06",
      "mailaddress": "geschaeftsstelle@tsvstaaken.de",
      "clubname": "Turn- und Sportverein Staaken 06"
    },
    {
      "webpage": "",
      "latlng": "52.5254211, 13.3330603",
      "phonenumber": "1785211122",
      "postcode": "10555 Berlin",
      "address": "Zwinglistra\u00dfe 36 ",
      "clublink": "DJK Blau-Wei\u00df",
      "mailaddress": "mariaagelopoulou@aol.com",
      "clubname": "DJK Blau-Wei\u00df"
    },
    {
      "webpage": "www.wkc-berlin.de",
      "latlng": "52.4145203, 13.1581898",
      "phonenumber": "1723054186",
      "postcode": "14109 Berlin",
      "address": "Bismarckstr. 70 - 72 ",
      "clublink": "Wannseer Kanu-Club e. V.",
      "mailaddress": "joerg.heibeck@wkc-berlin.de",
      "clubname": "Wannseer Kanu-Club e. V."
    },
    {
      "webpage": "ssvkob.de",
      "latlng": "52.4548912, 13.5454798",
      "phonenumber": "64904697",
      "postcode": "12439 Berlin",
      "address": "Bruno-B\u00fcrgel-Weg 99 ",
      "clublink": "Sport-Spiel-Verein K\u00f6penick-Oberspree e. V.",
      "mailaddress": "verein.koob@googlemail.com",
      "clubname": "Sport-Spiel-Verein K\u00f6penick-Oberspree e. V."
    },
    {
      "webpage": "",
      "latlng": "52.4589119, 13.2735796",
      "phonenumber": "8134055",
      "postcode": "14195 Berlin",
      "address": "Clayallee 121 ",
      "clublink": "Sch\u00fctzengilde Andreas Hofer Berlin e. V.",
      "mailaddress": "",
      "clubname": "Sch\u00fctzengilde Andreas Hofer Berlin e. V."
    },
    {
      "webpage": "",
      "latlng": "52.56567, 13.4141502",
      "phonenumber": "1711135635",
      "postcode": "13189 Berlin",
      "address": "Hiddenseestra\u00dfe 11 ",
      "clublink": "Segelgemeinschaft Rauchfangswerder e. V.",
      "mailaddress": "siegfried_krueger@gmx.de",
      "clubname": "Segelgemeinschaft Rauchfangswerder e. V."
    },
    {
      "webpage": "www.oth-reiten.de",
      "latlng": "52.4542999, 13.2493",
      "phonenumber": "030 - 813 20 81",
      "postcode": "14169 Berlin",
      "address": "Onkel-Tom-Stra\u00dfe 172 ",
      "clublink": "Reiterverein Onkel-Toms-H\u00fctte e. V.",
      "mailaddress": "info@oth-reiten.de",
      "clubname": "Reiterverein Onkel-Toms-H\u00fctte e. V."
    },
    {
      "webpage": "",
      "latlng": "52.4879494, 13.37463",
      "phonenumber": "0176-32 93 9003",
      "postcode": "10965 Berlin",
      "address": "Monumentenstr. 28 ",
      "clublink": "Kendoverband Berlin e.V.",
      "mailaddress": "b.baade@kendoverband-berlin.de",
      "clubname": "Kendoverband Berlin e.V."
    },
    {
      "webpage": "www.vgs-land-berlin.de",
      "latlng": "52.4445915, 13.5683203",
      "phonenumber": "93937580",
      "postcode": "12557 Berlin",
      "address": "Oberspreestra\u00dfe 186 ",
      "clublink": "Verein f\u00fcr Gesundheitssport e. V.",
      "mailaddress": "info@vgs-land-berlin.de",
      "clubname": "Verein f\u00fcr Gesundheitssport e. V."
    },
    {
      "webpage": "www.bctempelhof.de",
      "latlng": "52.4131699, 13.3590603",
      "phonenumber": "030 / 721 11 75",
      "postcode": "12279 Berlin",
      "address": "Hildburghauser Str. 10a ",
      "clublink": "Badminton-Club Tempelhof e. V.",
      "mailaddress": "d.babenschneider@bctempelhof.de",
      "clubname": "Badminton-Club Tempelhof e. V."
    },
    {
      "webpage": "www.wag-berlin.de",
      "latlng": "52.4732285, 13.2978001",
      "phonenumber": "030/21479179",
      "postcode": "14199 Berlin",
      "address": "Breite Str. 49 ",
      "clublink": "Wassersportgemeinschaft am Gro\u00dfen Fenster e. V.",
      "mailaddress": "info@wag-berlin.de",
      "clubname": "Wassersportgemeinschaft am Gro\u00dfen Fenster e. V."
    },
    {
      "webpage": "www.shingitai.de",
      "latlng": "52.5004616, 13.4218302",
      "phonenumber": "0049 30 695 07 688",
      "postcode": "10999 Berlin",
      "address": "Oranienstra\u00dfe 188 ",
      "clublink": "Shin Gi Tai Kai Karate Do e. V.",
      "mailaddress": "shitoryu@gmx.de",
      "clubname": "Shin Gi Tai Kai Karate Do e. V."
    },
    {
      "webpage": "www.die-kaenguruhs.org",
      "latlng": "52.4332619, 13.1946096",
      "phonenumber": "030/803 71 70",
      "postcode": "14129 Berlin",
      "address": "Spanische Allee 170 ",
      "clublink": "Nikolassee Tennis-Club Die K\u00e4nguruhs e. V.",
      "mailaddress": "info@die-kaenguruhs.org",
      "clubname": "Nikolassee Tennis-Club Die K\u00e4nguruhs e. V."
    },
    {
      "webpage": "",
      "latlng": "52.414959, 13.4183197",
      "phonenumber": "7423210",
      "postcode": "12349 Berlin",
      "address": "B\u00fchler Weg 51 ",
      "clublink": "Betriebssportgemeinschaft Procter & Gamble Manufacturing Berlin GmbH e. V.",
      "mailaddress": "hlattwesen@t-online.de",
      "clubname": "Betriebssportgemeinschaft Procter & Gamble Manufacturing Berlin GmbH e. V."
    },
    {
      "webpage": "www.tus-wilmersdorf.de",
      "latlng": "52.4847488, 13.6676197",
      "phonenumber": "1624830623",
      "postcode": "15366 Hoppegarten",
      "address": "Hauptstra\u00dfe 16 a ",
      "clublink": "Turn- und Sportverein Berlin -Wilmersdorf",
      "mailaddress": "annett.arnold@berlin.de",
      "clubname": "Turn- und Sportverein Berlin -Wilmersdorf"
    },
    {
      "webpage": "www.sc-seddin.de",
      "latlng": "52.3778305, 13.6504602",
      "phonenumber": "6758254",
      "postcode": "12527 Berlin",
      "address": "Am Seddinsee 13 ",
      "clublink": "Segel Club Seddin e. V.",
      "mailaddress": "kontaktscs@sc-seddin.de",
      "clubname": "Segel Club Seddin e. V."
    },
    {
      "webpage": "www.btc-wista.de",
      "latlng": "52.4224892, 13.5454197",
      "phonenumber": "6774734",
      "postcode": "12524 Berlin",
      "address": "Verl\u00e4ngerte Werderstra\u00dfe 5 ",
      "clublink": "Berliner Tennis-Club Wista e. V.",
      "mailaddress": "info@btc-wista.de",
      "clubname": "Berliner Tennis-Club Wista e. V."
    },
    {
      "webpage": "www.br-phoenix.de",
      "latlng": "52.5525513, 13.23699",
      "phonenumber": "334 76 30",
      "postcode": "13599 Berlin",
      "address": "Bootshausweg 6 ",
      "clublink": "Berliner Ruderclub Ph\u00f6nix e. V.",
      "mailaddress": "br-phoenix1913@web.de",
      "clubname": "Berliner Ruderclub Ph\u00f6nix e. V."
    },
    {
      "webpage": "www.tanzschule-steirl.de",
      "latlng": "52.5974312, 13.3633204",
      "phonenumber": "4152626",
      "postcode": "13439 Berlin",
      "address": "Wilhelmsruher Damm 96 ",
      "clublink": "M\u00e4rkischer Tanzsportclub Berlin e. V.",
      "mailaddress": "ts.steirl@t-online.de",
      "clubname": "M\u00e4rkischer Tanzsportclub Berlin e. V."
    },
    {
      "webpage": "",
      "latlng": "52.4909096, 13.3944998",
      "phonenumber": "",
      "postcode": "10961 Berlin",
      "address": "Zossener Stra\u00dfe 36 ",
      "clublink": "BSV Physio Harmony Reha-Sportverein e. V.",
      "mailaddress": "",
      "clubname": "BSV Physio Harmony Reha-Sportverein e. V."
    },
    {
      "webpage": "btc-gropiusstadt.de",
      "latlng": "52.4194107, 13.4703703",
      "phonenumber": "6611060",
      "postcode": "12355 Berlin",
      "address": "Matth\u00e4usweg 8 ",
      "clublink": "Berliner Tennisclub Gropiusstadt e. V.",
      "mailaddress": "kontakt@btc-gropiusstadt.de",
      "clubname": "Berliner Tennisclub Gropiusstadt e. V."
    },
    {
      "webpage": "",
      "latlng": "52.5031013, 13.3604603",
      "phonenumber": "2613468",
      "postcode": "10785 Berlin",
      "address": "Magdeburger Platz 4-5 ",
      "clublink": "BSG Max-B\u00fcrger-Krankenhaus",
      "mailaddress": "klausgruhn@web.de",
      "clubname": "BSG Max-B\u00fcrger-Krankenhaus"
    },
    {
      "webpage": "",
      "latlng": "52.4201317, 13.3912497",
      "phonenumber": "741 84 43",
      "postcode": "12107 Berlin",
      "address": "S\u00e4ntisstra\u00dfe 43 ",
      "clublink": "Kanu-Gemeinschaft Tegel e. V.",
      "mailaddress": "",
      "clubname": "Kanu-Gemeinschaft Tegel e. V."
    },
    {
      "webpage": "",
      "latlng": "52.5537491, 13.4186697",
      "phonenumber": "4463831",
      "postcode": "10439 Berlin",
      "address": "Trelleborger Stra\u00dfe 2 ",
      "clublink": "Sportverein Startklar e.V.",
      "mailaddress": "",
      "clubname": "Sportverein Startklar e.V."
    },
    {
      "webpage": "www.fc-concordia-wilhelmsruh1895.de",
      "latlng": "52.6013298, 13.4023705",
      "phonenumber": "9121480",
      "postcode": "13158 Berlin",
      "address": "Dietzgenstra\u00dfe 187-189 ",
      "clublink": "Fu\u00dfball-Club Concordia Wilhelmsruh 1895 e. V.",
      "mailaddress": "vorstand@cw1895.de",
      "clubname": "Fu\u00dfball-Club Concordia Wilhelmsruh 1895 e. V."
    },
    {
      "webpage": "http://www.scodin.de/",
      "latlng": "52.5731506, 13.2589703",
      "phonenumber": "432 73 92",
      "postcode": "13507 Berlin",
      "address": "Bernauer Stra\u00dfe 152 c ",
      "clublink": "Segel-Club Odin e. V.",
      "mailaddress": "",
      "clubname": "Segel-Club Odin e. V."
    },
    {
      "webpage": "www.teamsport-berlin.de",
      "latlng": "52.400753, 13.5840626",
      "phonenumber": "",
      "postcode": "12526 Berlin",
      "address": "Neptunstra\u00dfe 1 ",
      "clublink": "HSV Teamsport Berlin e. V.",
      "mailaddress": "1.vors@teamsport-berlin.de",
      "clubname": "HSV Teamsport Berlin e. V."
    },
    {
      "webpage": "",
      "latlng": "52.5919304, 14.23633",
      "phonenumber": "0177/ 2054180",
      "postcode": "15320 Neuhardenberg",
      "address": "Friedrich-Engels-Stra\u00dfe 15 a ",
      "clublink": "FMC Neuhardenberg e. V.",
      "mailaddress": "holger.au@t-online.de",
      "clubname": "FMC Neuhardenberg e. V."
    },
    {
      "webpage": "",
      "latlng": "52.5079689, 13.3928299",
      "phonenumber": "2839910",
      "postcode": "10177 Berlin",
      "address": "Zimmerstra\u00dfe 69 ",
      "clublink": "FC Akzent Berlin",
      "mailaddress": "stefan.schwass@akzent-personal.de",
      "clubname": "FC Akzent Berlin"
    },
    {
      "webpage": "www.sv-empor-berlin.de",
      "latlng": "52.5443802, 13.4107199",
      "phonenumber": "44058731",
      "postcode": "10437 Berlin",
      "address": "Cantianstra\u00dfe 24 ",
      "clublink": "Sportverein Empor Berlin e. V.",
      "mailaddress": "verein@empor-berlin.de",
      "clubname": "Sportverein Empor Berlin e. V."
    },
    {
      "webpage": "",
      "latlng": "52.4855614, 13.3865604",
      "phonenumber": "695 32 323",
      "postcode": "10965 Berlin",
      "address": "Mehringdamm 129 ",
      "clublink": "BSG WSA Berlin (Wasser- und Schifffahrtsamt) e. V.",
      "mailaddress": "",
      "clubname": "BSG WSA Berlin (Wasser- und Schifffahrtsamt) e. V."
    },
    {
      "webpage": "",
      "latlng": "52.5579681, 13.1961098",
      "phonenumber": "362 81 002",
      "postcode": "13589 Berlin",
      "address": "Kronprinzenstra\u00dfe 7 b ",
      "clublink": "Aktionssch\u00fctzen Spandau",
      "mailaddress": "",
      "clubname": "Aktionssch\u00fctzen Spandau"
    },
    {
      "webpage": "www.:// mc-automobil-berlin.de/",
      "latlng": "52.51607131958008, 13.37697982788086",
      "phonenumber": "03343/952 880",
      "postcode": "13001 Berlin",
      "address": "Postfach 770 155 ",
      "clublink": "Motorsportclub Auto Mobil Berlin e. V.",
      "mailaddress": "MC-Automobil-Berlin@gmx.de",
      "clubname": "Motorsportclub Auto Mobil Berlin e. V."
    },
    {
      "webpage": "",
      "latlng": "52.5580101, 13.4143105",
      "phonenumber": "16097792336",
      "postcode": "13189 Berlin",
      "address": "Westerlandstra\u00dfe 19 ",
      "clublink": "Aufschwung Pankow",
      "mailaddress": "",
      "clubname": "Aufschwung Pankow"
    },
    {
      "webpage": "www.tcglimmer.de",
      "latlng": "52.5641899, 13.2097998",
      "phonenumber": "15773351290",
      "postcode": "13587 Berlin",
      "address": "Streitstra\u00dfe 35 c ",
      "clublink": "Turn Club Glimmer",
      "mailaddress": "niko.dokic@googlemail.com",
      "clubname": "Turn Club Glimmer"
    },
    {
      "webpage": "",
      "latlng": "52.5068283, 13.3790102",
      "phonenumber": "8502 2290",
      "postcode": "10963 Berlin",
      "address": "Stresemannstra\u00dfe 111 ",
      "clublink": "ERGOsports Berlin",
      "mailaddress": "",
      "clubname": "ERGOsports Berlin"
    },
    {
      "webpage": "www.fcgrunewald.de",
      "latlng": "52.4346085, 13.3829298",
      "phonenumber": "1777034945",
      "postcode": "12107 Berlin",
      "address": "Fritz-Werner-Stra\u00dfe 46 a ",
      "clublink": "Fu\u00dfball-Club Grunewald 1957 e. V.",
      "mailaddress": "ThorstenWoelkexx@aol.com",
      "clubname": "Fu\u00dfball-Club Grunewald 1957 e. V."
    },
    {
      "webpage": "www.asb-berlin.de/wrd",
      "latlng": "52.5042801, 13.4527302",
      "phonenumber": "21307136",
      "postcode": "10245 Berlin",
      "address": "Rudolfstra\u00dfe 9 ",
      "clublink": "Wasserrettungsdienst im ASB Landesverband Berlin",
      "mailaddress": "fdl-wrd@asb-berlin.de",
      "clubname": "Wasserrettungsdienst im ASB Landesverband Berlin"
    },
    {
      "webpage": "posenkieker-berlin.de",
      "latlng": "52.5778313, 13.2729797",
      "phonenumber": "4327326",
      "postcode": "13507 Berlin",
      "address": "Uferweg ",
      "clublink": "Anglerverein Posenkieker 1912",
      "mailaddress": "posenkieker-berlin@t-online.de",
      "clubname": "Anglerverein Posenkieker 1912"
    },
    {
      "webpage": "www.berlin-radsport.de/vereine/blitzneukoelln",
      "latlng": "52.4176483, 13.5095997",
      "phonenumber": "6811133",
      "postcode": "12355 Berlin",
      "address": "Schirpitzer Weg 7 ",
      "clublink": "Radfahrerverein Blitz Neuk\u00f6lln",
      "mailaddress": "a-henze@t-online.de",
      "clubname": "Radfahrerverein Blitz Neuk\u00f6lln"
    },
    {
      "webpage": "www.fcveritas.de",
      "latlng": "52.4180984, 13.5077",
      "phonenumber": "",
      "postcode": "12355 Berlin",
      "address": "Benatzkyweg 34 ",
      "clublink": "Spandauer Fu\u00dfball-Club Veritas 1996 Berlin e. V.",
      "mailaddress": "",
      "clubname": "Spandauer Fu\u00dfball-Club Veritas 1996 Berlin e. V."
    },
    {
      "webpage": "",
      "latlng": "52.5118408, 13.1765099",
      "phonenumber": "3624491",
      "postcode": "13593 Berlin",
      "address": "Falstaffweg 20 ",
      "clublink": "Tennisclub Hohengatow e.V.",
      "mailaddress": "b.gri@web.de",
      "clubname": "Tennisclub Hohengatow e.V."
    },
    {
      "webpage": "",
      "latlng": "52.5586586, 13.07306",
      "phonenumber": "3322214047",
      "postcode": "14612 Falkensee",
      "address": "Rotkehlchenstra\u00dfe 23 c ",
      "clublink": "BSG Greenhorn 72",
      "mailaddress": "rainer.von.kornatzky@web.de",
      "clubname": "BSG Greenhorn 72"
    },
    {
      "webpage": "",
      "latlng": "52.4195518, 13.3062201",
      "phonenumber": "76766265",
      "postcode": "12207 Berlin",
      "address": "Ostpreu\u00dfendamm 75 ",
      "clublink": "Sch\u00fctzenteam 'Guns & More Team' e. V.",
      "mailaddress": "gmteam@web.de",
      "clubname": "Sch\u00fctzenteam 'Guns & More Team' e. V."
    },
    {
      "webpage": "www.TCB-Berlin.de",
      "latlng": "52.4456902, 13.3936901",
      "phonenumber": "7518008",
      "postcode": "12109 Berlin",
      "address": "Westphalweg 10 ",
      "clublink": "Tauchsport-Club Berlin e.V.",
      "mailaddress": "Vorstand@tcb-berlin.de",
      "clubname": "Tauchsport-Club Berlin e.V."
    },
    {
      "webpage": "www.knallrot.org",
      "latlng": "52.5435295, 13.4147501",
      "phonenumber": "6248959",
      "postcode": "10437 Berlin",
      "address": "Pappelallee 76 ",
      "clublink": "Knallrot Wilmersdorf e. V.",
      "mailaddress": "carsten.lilie@web.de",
      "clubname": "Knallrot Wilmersdorf e. V."
    },
    {
      "webpage": "www.berliner-rugby-club.de",
      "latlng": "52.43787, 13.25879",
      "phonenumber": "80906244",
      "postcode": "14169 Berlin",
      "address": "Scharfestr. 12 ",
      "clublink": "Berliner Rugby-Club e. V.",
      "mailaddress": "office@berliner-rugby-club.de",
      "clubname": "Berliner Rugby-Club e. V."
    },
    {
      "webpage": "",
      "latlng": "52.4106903, 13.3400602",
      "phonenumber": "726 12 80 72",
      "postcode": "12209 Berlin",
      "address": "Jenbacher Weg 14 ",
      "clublink": "Finnegan's e. V.",
      "mailaddress": "finnsforfun@freenet.de",
      "clubname": "Finnegan's e. V."
    },
    {
      "webpage": "",
      "latlng": "52.5392113, 13.6416197",
      "phonenumber": "3342424181",
      "postcode": "15366 Hoppegarten",
      "address": "Nu\u00dfbaumweg 14 ",
      "clublink": "Sch\u00fctzenverein Mahlsdorf e. V.",
      "mailaddress": "SvMahlsdorf@t-online.de",
      "clubname": "Sch\u00fctzenverein Mahlsdorf e. V."
    },
    {
      "webpage": "",
      "latlng": "52.5685806, 13.5672598",
      "phonenumber": "4664976107",
      "postcode": "12689 Berlin",
      "address": "Fl\u00e4mingstr. 113 ",
      "clublink": "Volleypopverein Ahrensfelde e. V.",
      "mailaddress": "dirkundkerstin@gmx.de",
      "clubname": "Volleypopverein Ahrensfelde e. V."
    },
    {
      "webpage": "",
      "latlng": "52.5897217, 13.3901901",
      "phonenumber": "",
      "postcode": "13158 Berlin",
      "address": "Taufsteinweg 17 ",
      "clublink": "Toyama e. V.",
      "mailaddress": "torukosv@yahoo.de",
      "clubname": "Toyama e. V."
    },
    {
      "webpage": "www.lgnord.de",
      "latlng": "52.6216202, 13.3081398",
      "phonenumber": "40 58 65 21",
      "postcode": "13467 Berlin",
      "address": "Hermsdorfer Damm 199 ",
      "clublink": "Sport Club Tegeler Forst e. V.",
      "mailaddress": "info@sc-tegeler-forst.de",
      "clubname": "Sport Club Tegeler Forst e. V."
    },
    {
      "webpage": "",
      "latlng": "52.5363083, 13.27213",
      "phonenumber": "38304470",
      "postcode": "13629 Berlin",
      "address": "Siemensdamm 47 ",
      "clublink": "BSG Robert Bosch Berlin",
      "mailaddress": "a.g.Berlin@t-online.de",
      "clubname": "BSG Robert Bosch Berlin"
    },
    {
      "webpage": "www.svberlin-buch.de",
      "latlng": "52.6248398, 13.4967899",
      "phonenumber": "949 78 25",
      "postcode": "13125 Berlin",
      "address": "Karower Chaussee 169 c ",
      "clublink": "Sportverein Berlin-Buch",
      "mailaddress": "sjcbuch@gmx.de",
      "clubname": "Sportverein Berlin-Buch"
    },
    {
      "webpage": "",
      "latlng": "52.4211006, 13.4451799",
      "phonenumber": "6056335",
      "postcode": "12353 Berlin",
      "address": "Renschweg 11 ",
      "clublink": "Sportsch\u00fctzen Buckow e. V.",
      "mailaddress": "",
      "clubname": "Sportsch\u00fctzen Buckow e. V."
    },
    {
      "webpage": "http://www.wv-helios.de",
      "latlng": "52.4104996, 13.3558502",
      "phonenumber": "372 68 11",
      "postcode": "12279 Berlin",
      "address": "Tirschenreuther Ring 74 ",
      "clublink": "Wassersportverein Helios e. V.",
      "mailaddress": "diemarienfelder@web.de",
      "clubname": "Wassersportverein Helios e. V."
    },
    {
      "webpage": "www.viktoria-berlin.de",
      "latlng": "52.4367294, 13.3218098",
      "phonenumber": "754448980",
      "postcode": "12207 Berlin",
      "address": "Krahmerstra\u00dfe 15 ",
      "clublink": "FC Viktoria 1889 Berlin Lichterfelde-Tempelhof e. V.",
      "mailaddress": "info@viktoria-berlin.de",
      "clubname": "FC Viktoria 1889 Berlin Lichterfelde-Tempelhof e. V."
    },
    {
      "webpage": "",
      "latlng": "52.5164604, 13.3069897",
      "phonenumber": "34095074",
      "postcode": "10585 Berlin",
      "address": "Richard-Wagner-Stra\u00dfe 52 ",
      "clublink": "GRP Gesundheitsvorsorge Rehabilitation und Patientenrechte e. V.",
      "mailaddress": "grpev@aol.com",
      "clubname": "GRP Gesundheitsvorsorge Rehabilitation und Patientenrechte e. V."
    },
    {
      "webpage": "www.club.isbt.de",
      "latlng": "52.4802399, 13.5222902",
      "phonenumber": "42088497",
      "postcode": "10318 Berlin",
      "address": "Heiligenberger Stra\u00dfe 9 ",
      "clublink": "Studenten Badminton Team Berlin e. V.",
      "mailaddress": "o.ebersbach@gmx.de",
      "clubname": "Studenten Badminton Team Berlin e. V."
    },
    {
      "webpage": "www.kneipp-berlin.de",
      "latlng": "52.4775391, 13.3133898",
      "phonenumber": "822 08 64",
      "postcode": "14197 Berlin",
      "address": "A\u00dfmannshauser Stra\u00dfe 23 a ",
      "clublink": "Kneippverein Berlin e. V.",
      "mailaddress": "info@kneipp-verein-berlin.de",
      "clubname": "Kneippverein Berlin e. V."
    },
    {
      "webpage": "www.gruen-weiss-neukoelln.de",
      "latlng": "52.4268799, 13.4496899",
      "phonenumber": "6045566",
      "postcode": "12353 Berlin",
      "address": "Wermuthweg 26 ",
      "clublink": "Berliner Sport-Verein Gr\u00fcn-Wei\u00df Neuk\u00f6lln e. V.",
      "mailaddress": "gruen-weiss-neukoelln@t-online.de",
      "clubname": "Berliner Sport-Verein Gr\u00fcn-Wei\u00df Neuk\u00f6lln e. V."
    },
    {
      "webpage": "",
      "latlng": "52.6115494, 13.2341299",
      "phonenumber": "4318985",
      "postcode": "13503 Berlin",
      "address": "Im Rehgrund 20 ",
      "clublink": "Club de P\u00eache e. V.",
      "mailaddress": "",
      "clubname": "Club de P\u00eache e. V."
    },
    {
      "webpage": "www.tsv-wedding.de",
      "latlng": "52.5497017, 13.37216",
      "phonenumber": "4624100",
      "postcode": "13357 Berlin",
      "address": "Uferstra\u00dfe 18 ",
      "clublink": "Turn- und Sportverein Berlin Wedding 1862 e.V.",
      "mailaddress": "kontakt@tsv-wedding.de",
      "clubname": "Turn- und Sportverein Berlin Wedding 1862 e.V."
    },
    {
      "webpage": "www.ig-tauchen.org",
      "latlng": "52.5077782, 13.31705",
      "phonenumber": "31504578",
      "postcode": "10625 Berlin",
      "address": "Pestalozzistra\u00dfe 9 a ",
      "clublink": "Interessengemeinschaft Tauchen e. V.",
      "mailaddress": "webmaster@ig-tauchen.org",
      "clubname": "Interessengemeinschaft Tauchen e. V."
    },
    {
      "webpage": "www.qwankidoberlin.de",
      "latlng": "52.51607131958008, 13.37697982788086",
      "phonenumber": "",
      "postcode": "12534 Berlin",
      "address": "Postfach 84 04 12 ",
      "clublink": "Qwan Ki Do Berlin-K\u00f6penick e.V.",
      "mailaddress": "vorstand@qwankidoberlin.de",
      "clubname": "Qwan Ki Do Berlin-K\u00f6penick e.V."
    },
    {
      "webpage": "",
      "latlng": "52.4791985, 13.3485498",
      "phonenumber": "78485606",
      "postcode": "10829 Berlin",
      "address": "Ebersstra\u00dfe 35 ",
      "clublink": "Yama e. V.",
      "mailaddress": "info@yama-karate.de",
      "clubname": "Yama e. V."
    },
    {
      "webpage": "drk-berlin.de",
      "latlng": "52.5381508, 13.1964798",
      "phonenumber": "3539370",
      "postcode": "13597 Berlin",
      "address": "Galenstra\u00dfe 29 ",
      "clublink": "Wasserwacht im DRK Kreisverband Spandau e. V.",
      "mailaddress": "info@berlin-spandau.drk.de",
      "clubname": "Wasserwacht im DRK Kreisverband Spandau e. V."
    },
    {
      "webpage": "wsv-berlin.de",
      "latlng": "52.5524788, 13.4721298",
      "phonenumber": "9256716",
      "postcode": "13088 Berlin",
      "address": "Else-Jahn-Stra\u00dfe 18 ",
      "clublink": "Wei\u00dfenseer Sportverein 'Rot-Wei\u00df' e. V.",
      "mailaddress": "beutel@beuko-berlin.de",
      "clubname": "Wei\u00dfenseer Sportverein 'Rot-Wei\u00df' e. V."
    },
    {
      "webpage": "www.Kase-Karate-Do-berlin.de",
      "latlng": "52.4065208, 13.4088802",
      "phonenumber": "0172/30 64 382",
      "postcode": "12305 Berlin",
      "address": "Griembergweg 4 ",
      "clublink": "Kase-Karate-Do Berlin",
      "mailaddress": "heiber.torsten@gmail.com",
      "clubname": "Kase-Karate-Do Berlin"
    },
    {
      "webpage": "",
      "latlng": "52.5015793, 13.3215103",
      "phonenumber": "8833912",
      "postcode": "10719 Berlin",
      "address": "Knesebeckstra\u00dfe 38 - 49 ",
      "clublink": "Billard-Club International e. V.",
      "mailaddress": "",
      "clubname": "Billard-Club International e. V."
    },
    {
      "webpage": "www.lichtenberger-tennisclub.de",
      "latlng": "52.5211716, 13.4832897",
      "phonenumber": "030 50969671",
      "postcode": "10367 Berlin",
      "address": "Bornitzstra\u00dfe 17 ",
      "clublink": "Lichtenberger Tennisclub e. V.",
      "mailaddress": "webmaster@lichtenberger-tennisclub.de",
      "clubname": "Lichtenberger Tennisclub e. V."
    },
    {
      "webpage": "www.berlin.sibirskij-wjun.de",
      "latlng": "52.4904709, 13.53965",
      "phonenumber": "17663402303",
      "postcode": "10318 Berlin",
      "address": "Zwieseler Stra\u00dfe 62 ",
      "clublink": "Sibirskij Wjun (Filiale Sibirische Winde) e. V.",
      "mailaddress": "wjun.berlin@gmx.de",
      "clubname": "Sibirskij Wjun (Filiale Sibirische Winde) e. V."
    },
    {
      "webpage": "www.squashclub-fitfun.de",
      "latlng": "52.5107803, 13.3175201",
      "phonenumber": "0172/831 50 26",
      "postcode": "10625 Berlin",
      "address": "Schillerstr. 110 ",
      "clublink": "Squash-Club Fit-Fun Berlin e. V.",
      "mailaddress": "info@squashclub-fitfun.de",
      "clubname": "Squash-Club Fit-Fun Berlin e. V. "
    },
    {
      "webpage": "rsg-buckower-feldmark.de",
      "latlng": "52.4243317, 13.4407043",
      "phonenumber": "1743235679",
      "postcode": "12351 Berlin",
      "address": "Johannisthaler Chaussee 421 ",
      "clublink": "Reitsportgemeinschaft Buckower Feldmark e. V.",
      "mailaddress": "marco@marabu-bar.de",
      "clubname": "Reitsportgemeinschaft Buckower Feldmark e. V."
    },
    {
      "webpage": "www.fechtsport-club-berlin.de",
      "latlng": "52.6315193, 13.27985",
      "phonenumber": "40304871",
      "postcode": "13465 Berlin",
      "address": "Benediktinerstra\u00dfe 34 ",
      "clublink": "Fechtsport Club Berlin e.V.",
      "mailaddress": "mail@fechtsport-club-berlin.de",
      "clubname": "Fechtsport Club Berlin e.V."
    },
    {
      "webpage": "www.aikido-wirbel-wedding.de",
      "latlng": "52.4691696, 13.3136797",
      "phonenumber": "1718344397",
      "postcode": "14197 Berlin",
      "address": "S\u00fcdwestkorso 32 ",
      "clublink": "Aikido-Wirbel Berlin e.V.",
      "mailaddress": "detlef-meissner@web.de",
      "clubname": "Aikido-Wirbel Berlin e.V."
    },
    {
      "webpage": "",
      "latlng": "52.5938606, 13.5389404",
      "phonenumber": "1723071966",
      "postcode": "16356 Ahrensfelde",
      "address": "Steinstra\u00dfe 33 ",
      "clublink": "Volleyball-Freunde Berlin-Hohensch\u00f6nhausen e. V.",
      "mailaddress": "hardy.fraesdorf@t-online.de",
      "clubname": "Volleyball-Freunde Berlin-Hohensch\u00f6nhausen e. V."
    },
    {
      "webpage": "",
      "latlng": "52.4920998, 13.3447704",
      "phonenumber": "1749998020",
      "postcode": "10779 Berlin",
      "address": "Barbarossastra\u00dfe 47 ",
      "clublink": "BSG BVG Cicero",
      "mailaddress": "Glystra@kabelmail.de",
      "clubname": "BSG BVG Cicero"
    },
    {
      "webpage": "",
      "latlng": "52.5137787, 13.4408703",
      "phonenumber": "2947113",
      "postcode": "10243 Berlin",
      "address": "Stra\u00dfe der Pariser Kommune 22 ",
      "clublink": "Ruths Gymnastikgruppe e. V.",
      "mailaddress": "ruths.gymnastikgruppe@gmx.de",
      "clubname": "Ruths Gymnastikgruppe e. V."
    },
    {
      "webpage": "www.break90.de",
      "latlng": "52.7318001, 13.3899498",
      "phonenumber": "01511-7893541",
      "postcode": "16515 Z\u00fchlsdorf",
      "address": "Dorfstra\u00dfe 24 ",
      "clublink": "Tennissportgemeinschaft Break 90 e. V.",
      "mailaddress": "TSG_Break90@gmx.de",
      "clubname": "Tennissportgemeinschaft Break 90 e. V."
    },
    {
      "webpage": "www.berliner-taekwondo-verein.de",
      "latlng": "52.5713615, 13.3587599",
      "phonenumber": "493040693975",
      "postcode": "13407 Berlin",
      "address": "Rohrschacher Zeile 10 ",
      "clublink": "Taekwon-Do-Verein Berlin-Charlottenburg e. V.",
      "mailaddress": "",
      "clubname": "Taekwon-Do-Verein Berlin-Charlottenburg e. V."
    },
    {
      "webpage": "www.helmholtz-berlin.de",
      "latlng": "52.4111824, 13.1298628",
      "phonenumber": "806243294",
      "postcode": "14109 Berlin",
      "address": "Hahn-Meitner-Platz 1 ",
      "clublink": "BSG Helmholtz-Zentrum Berlin (BSG-HZB) e. V.",
      "mailaddress": "betriebssport@helmholtz-berlin.de",
      "clubname": "BSG Helmholtz-Zentrum Berlin (BSG-HZB) e. V."
    },
    {
      "webpage": "",
      "latlng": "52.4506798, 13.5084295",
      "phonenumber": "3063905070",
      "postcode": "12487 Berlin",
      "address": "Sterndamm 35 ",
      "clublink": "Gesundheits- und Familiensportverein Berlin Johannisthal e. V.",
      "mailaddress": "familyfit@gmx.net",
      "clubname": "Gesundheits- und Familiensportverein Berlin Johannisthal e. V."
    },
    {
      "webpage": "www.bushido-dojo.de",
      "latlng": "52.5481682, 13.56709",
      "phonenumber": "9339571",
      "postcode": "12679 Berlin",
      "address": "Grohsteig 3 ",
      "clublink": "Bushido Dojo Berlin e. V.",
      "mailaddress": "dirk@bushido-dojo.de",
      "clubname": "Bushido Dojo Berlin e. V."
    },
    {
      "webpage": "",
      "latlng": "52.5604095, 13.4103298",
      "phonenumber": "60922491",
      "postcode": "13187 Berlin",
      "address": "Zillertalstra\u00dfe 53 ",
      "clublink": "Federballclub Neuwestend",
      "mailaddress": "ukuschel@yahoo.de",
      "clubname": "Federballclub Neuwestend"
    },
    {
      "webpage": "",
      "latlng": "52.5023499, 13.3198004",
      "phonenumber": "8844040",
      "postcode": "10623 Berlin",
      "address": "Bleibtreustra\u00dfe 38 ",
      "clublink": "Tischtennisclub Verein ohne Namen (TTC VoN) e. V.",
      "mailaddress": "aj@ra-je.de",
      "clubname": "Tischtennisclub Verein ohne Namen (TTC VoN) e. V."
    },
    {
      "webpage": "www.capoeira-berlin.com",
      "latlng": "52.54953, 13.44979",
      "phonenumber": "81828477",
      "postcode": "13086 Berlin",
      "address": "Langhansstr. 5b  ",
      "clublink": "ABADA-Capoeira Berlin e. V.",
      "mailaddress": "info@capoeira-berlin.com",
      "clubname": "ABADA-Capoeira Berlin e. V."
    },
    {
      "webpage": "",
      "latlng": "52.4499588, 13.3507099",
      "phonenumber": "7525688",
      "postcode": "12169 Berlin",
      "address": "Steglitzer Damm 81 a ",
      "clublink": "Pool Billard Club 77 Viktoria Berlin e. V.",
      "mailaddress": "",
      "clubname": "Pool Billard Club 77 Viktoria Berlin e. V."
    },
    {
      "webpage": "www.srtv.de",
      "latlng": "52.4821815, 13.3259001",
      "phonenumber": "86409550",
      "postcode": "10715 Berlin",
      "address": "Livl\u00e4ndische Str.8 ",
      "clublink": "Sport- und Rettungstauchverein Berlin e.V.",
      "mailaddress": "vorstand@srtv.de",
      "clubname": "Sport- und Rettungstauchverein Berlin e.V."
    },
    {
      "webpage": "www.fass-berlin.de",
      "latlng": "52.62603, 13.2332897",
      "phonenumber": "75706832",
      "postcode": "13503 Berlin",
      "address": "B\u00fcssower Weg 14 ",
      "clublink": "Freier Akademischer Sportverein Siegmundshof e. V.",
      "mailaddress": "info@fass-berlin.de",
      "clubname": "Freier Akademischer Sportverein Siegmundshof e. V."
    },
    {
      "webpage": "www.vfl-zehlendorf.de",
      "latlng": "52.5367088, 13.3038397",
      "phonenumber": "3455652",
      "postcode": "13627 Berlin",
      "address": "Leuningerpfad 5 ",
      "clublink": "Verein f\u00fcr Leibes\u00fcbungen Zehlendorf e. V.",
      "mailaddress": "i.blumensaat@vfl-zehlendorf.de",
      "clubname": "Verein f\u00fcr Leibes\u00fcbungen Zehlendorf e. V."
    },
    {
      "webpage": "",
      "latlng": "52.5987282, 13.3579702",
      "phonenumber": "1607007407",
      "postcode": "13439 Berlin",
      "address": "Senftenberger Ring 14 ",
      "clublink": "BSG Strabag SE 67",
      "mailaddress": "bsgstrabagse67@zueblin.de",
      "clubname": "BSG Strabag SE 67"
    },
    {
      "webpage": "",
      "latlng": "52.4298096, 13.20296",
      "phonenumber": "8032212",
      "postcode": "14129 Berlin",
      "address": "Schopenhauerstra\u00dfe 93 m ",
      "clublink": "TTC-D\u00fcppel e. V.",
      "mailaddress": "klauslietzau@web.de",
      "clubname": "TTC-D\u00fcppel e. V."
    },
    {
      "webpage": "www.kar-berlin.de",
      "latlng": "52.5050201, 13.2107201",
      "phonenumber": "304 80 05",
      "postcode": "14055 Berlin",
      "address": "Havelchaussee 119 ",
      "clublink": "Klub am Rupenhorn e. V.",
      "mailaddress": "info@kar-berlin.de",
      "clubname": "Klub am Rupenhorn e. V."
    },
    {
      "webpage": "www.Lothar-Nest.de",
      "latlng": "52.4405708, 13.39112",
      "phonenumber": "705 41 28",
      "postcode": "12107 Berlin",
      "address": "Alt-Mariendorf 19 ",
      "clublink": "Sport Club Nest '73",
      "mailaddress": "lothar.nest@t-online.de",
      "clubname": "Sport Club Nest '73"
    },
    {
      "webpage": "www.spreepointdragons.de",
      "latlng": "52.4096184, 13.60215",
      "phonenumber": "1743913345",
      "postcode": "12527 Berlin",
      "address": "Sportpromenade 3 ",
      "clublink": "1. K\u00f6penicker Drachenboot e. V.",
      "mailaddress": "captain@spreepointdragons.de",
      "clubname": "1. K\u00f6penicker Drachenboot e. V."
    },
    {
      "webpage": "www.i-shin.de",
      "latlng": "52.6094894, 13.4817896",
      "phonenumber": "0171-4813443",
      "postcode": "13125 Berlin",
      "address": "Alt-Karow 3 ",
      "clublink": "Wicko e. V.",
      "mailaddress": "kontakt@i-shin.de",
      "clubname": "Wicko e. V."
    },
    {
      "webpage": "www.maerkischer-sc.de",
      "latlng": "52.5653992, 13.3729401",
      "phonenumber": "17622703526",
      "postcode": "13409 Berlin",
      "address": "Reginhardstra\u00dfe 99 ",
      "clublink": "M\u00e4rkischer Sport Club e. V.",
      "mailaddress": "lothar.klt@o2online.de",
      "clubname": "M\u00e4rkischer Sport Club e. V."
    },
    {
      "webpage": "",
      "latlng": "52.4751091, 13.32728",
      "phonenumber": "61670512",
      "postcode": "12161 Berlin",
      "address": "Bachestra\u00dfe 3 ",
      "clublink": "Segel-Club Gatow e. V.",
      "mailaddress": "am.beckert@t-online.de",
      "clubname": "Segel-Club Gatow e. V."
    },
    {
      "webpage": "www.weisse-baeren.de",
      "latlng": "52.51607131958008, 13.37697982788086",
      "phonenumber": "805 36 72",
      "postcode": "14091 Berlin",
      "address": "Postfach 39 01 55 ",
      "clublink": "Tennis Club Wei\u00dfe B\u00e4ren Wannsee e.V.",
      "mailaddress": "",
      "clubname": "Tennis Club Wei\u00dfe B\u00e4ren Wannsee e.V."
    },
    {
      "webpage": "",
      "latlng": "52.4994583, 13.4342699",
      "phonenumber": "2512591",
      "postcode": "10997 Berlin",
      "address": "Skalitzer Stra\u00dfe 51 ",
      "clublink": "Verein f\u00fcr Bewegungskunst e. V.",
      "mailaddress": "bewegungskuenste@web.de",
      "clubname": "Verein f\u00fcr Bewegungskunst e. V."
    },
    {
      "webpage": "",
      "latlng": "52.5524292, 13.1500397",
      "phonenumber": "3738763",
      "postcode": "13589  Berlin",
      "address": "Am Finkenherd 45 ",
      "clublink": "Reit- und Fahrverein 'Am Berg' e. V.",
      "mailaddress": "",
      "clubname": "Reit- und Fahrverein 'Am Berg' e. V."
    },
    {
      "webpage": "willi_grimm@freenet.de",
      "latlng": "52.5297318, 13.1977797",
      "phonenumber": "030/3314886",
      "postcode": "13581 Berlin",
      "address": "Stra\u00dfburger Stra\u00dfe 36 ",
      "clublink": "Spandauer Schachverein e. V.",
      "mailaddress": "willi_grimm@freenet.de",
      "clubname": "Spandauer Schachverein e. V."
    },
    {
      "webpage": "www.tc-69-berlin.de",
      "latlng": "52.4849701, 13.3296099",
      "phonenumber": "1797051300",
      "postcode": "10715 Berlin",
      "address": "Wilhelmsaue 136 ",
      "clublink": "Turn-Club 69 Berlin-Wilmersdorf e. V.",
      "mailaddress": "proepstars@googlemail.com",
      "clubname": "Turn-Club 69 Berlin-Wilmersdorf e. V."
    },
    {
      "webpage": "www.ksv-ev.de",
      "latlng": "52.4666901, 13.4829397",
      "phonenumber": "030/5326996",
      "postcode": "12437 Berlin",
      "address": "Rinkartstra\u00dfe 16 ",
      "clublink": "K\u00f6penicker Sportfischer Verein e. V.",
      "mailaddress": "heidi.moewes@ksv-ev.de",
      "clubname": "K\u00f6penicker Sportfischer Verein e. V."
    },
    {
      "webpage": "",
      "latlng": "52.5661201, 13.2119799",
      "phonenumber": "35503430",
      "postcode": "13587 Berlin",
      "address": "Werderstra\u00dfe 26 f ",
      "clublink": "SEI-WA-KAI e. V.",
      "mailaddress": "manfred_war@arcor.de",
      "clubname": "SEI-WA-KAI e. V."
    },
    {
      "webpage": "www.ycm-berlin.de",
      "latlng": "52.459301, 13.31633",
      "phonenumber": "8594919",
      "postcode": "12163 Berlin",
      "address": "Lepsiusstra\u00dfe 77 ",
      "clublink": "Yachtclub M\u00fcggelsee e. V.",
      "mailaddress": "klaus.scherbel@t-online.de",
      "clubname": "Yachtclub M\u00fcggelsee e. V."
    },
    {
      "webpage": "www.alpinclub-berlin.de",
      "latlng": "52.5130081, 13.3038597",
      "phonenumber": "345 08 804",
      "postcode": "10585 Berlin",
      "address": "Spielhagenstra\u00dfe 4 ",
      "clublink": "AlpinClub Berlin e. V.",
      "mailaddress": "alpinclub.berlin@t-online.de",
      "clubname": "AlpinClub Berlin e. V."
    },
    {
      "webpage": "",
      "latlng": "52.5221214, 13.4554596",
      "phonenumber": "",
      "postcode": "10249 Berlin",
      "address": "Thaerstra\u00dfe 33 ",
      "clublink": "T.G.I. Friday's Basketball Squad e. V.",
      "mailaddress": "ivohellwig@web.de",
      "clubname": "T.G.I. Friday's Basketball Squad e. V."
    },
    {
      "webpage": "www.bcberlin.de",
      "latlng": "52.4123497, 13.4015198",
      "phonenumber": "742 21 90",
      "postcode": "12305 Berlin",
      "address": "Lichtenrader Damm 20 ",
      "clublink": "Budo-Club Berlin e.V.",
      "mailaddress": "d.rast@t-online.de",
      "clubname": "Budo-Club Berlin e.V."
    },
    {
      "webpage": "www.rotweissspandau.de",
      "latlng": "52.5627518, 13.0649099",
      "phonenumber": "1775240009",
      "postcode": "14612 Falkensee",
      "address": "Erfurter Stra\u00dfe 18 ",
      "clublink": "Rot-Wei\u00df Spandau",
      "mailaddress": "vorstand@rotweissspandau.de",
      "clubname": "Rot-Wei\u00df Spandau"
    },
    {
      "webpage": "www.itc-berlin.com",
      "latlng": "52.5565796, 13.3053999",
      "phonenumber": "41704631",
      "postcode": "13405 Berlin",
      "address": "Kurt-Schumacher-Damm 160  A ",
      "clublink": "Internationaler Tennis-Club Berlin e. V.",
      "mailaddress": "info@itc-berlin.com",
      "clubname": "Internationaler Tennis-Club Berlin e. V."
    },
    {
      "webpage": "www.blau-gold-steglitz.de",
      "latlng": "52.4423904, 13.3450098",
      "phonenumber": "771 68 86",
      "postcode": "12247 Berlin",
      "address": "Leonorenstra\u00dfe 37-39 ",
      "clublink": "Tennisklub Blau-Gold Steglitz e. V.",
      "mailaddress": "tennis@blau-gold-steglitz.de",
      "clubname": "Tennisklub Blau-Gold Steglitz e. V."
    },
    {
      "webpage": "www.inazuma.de",
      "latlng": "52.4534988, 13.6227102",
      "phonenumber": "",
      "postcode": "12587 Berlin",
      "address": "Albert-Schweitzer-Stra\u00dfe 36 ",
      "clublink": "Inazuma-Kampfkunst-Dojo Berlin e. V.",
      "mailaddress": "beate@inazuma.de",
      "clubname": "Inazuma-Kampfkunst-Dojo Berlin e. V."
    },
    {
      "webpage": "www.gut-seeburg.de",
      "latlng": "52.5123215, 13.1085796",
      "phonenumber": "3320131282",
      "postcode": "14624 Dallgow-D\u00f6beritz",
      "address": "Am Champagnerberg, Scholle 4 ",
      "clublink": "Polo-Club Gut Seeburg e. V.",
      "mailaddress": "info@gut-seeburg.de",
      "clubname": "Polo-Club Gut Seeburg e. V."
    },
    {
      "webpage": "",
      "latlng": "52.5165291, 13.1973305",
      "phonenumber": "",
      "postcode": "13595 Berlin",
      "address": "Pichelsdorfer Stra\u00dfe 31 ",
      "clublink": "Leben in Bewegung e. V.",
      "mailaddress": "eckmann-berlin@arcor.de",
      "clubname": "Leben in Bewegung e. V."
    },
    {
      "webpage": "www.ttc-berlin-eastside.de",
      "latlng": "52.5313301, 13.4489603",
      "phonenumber": "4212023",
      "postcode": "10407 Berlin",
      "address": "Paul-Heyse-Stra\u00dfe 25 ",
      "clublink": "Tischtennisclub berlin eastside e. V.",
      "mailaddress": "kontakt@ttc-berlin-eastside.de",
      "clubname": "Tischtennisclub berlin eastside e. V."
    },
    {
      "webpage": "",
      "latlng": "52.4979782, 13.3102703",
      "phonenumber": "3427324",
      "postcode": "10707 Berlin",
      "address": "Duisburger Stra\u00dfe 17 ",
      "clublink": "Tanzclub royal Berlin e. V.",
      "mailaddress": "",
      "clubname": "Tanzclub royal Berlin e. V."
    },
    {
      "webpage": "www.hsc-berlin.de",
      "latlng": "52.6100082, 13.3073196",
      "phonenumber": "37300370",
      "postcode": "13467 Berlin",
      "address": "Boumannstr. 11-13 und 15 a ",
      "clublink": "Hermsdorfer Sport Club 1906 e. V.",
      "mailaddress": "",
      "clubname": "Hermsdorfer Sport Club 1906 e. V."
    },
    {
      "webpage": "www.lgwedding.de",
      "latlng": "52.4323006, 13.1636801",
      "phonenumber": "8055491",
      "postcode": "14109 Berlin",
      "address": "Zum Heckeshorn 56A ",
      "clublink": "Lauf-Gemeinschaft Wedding e. V.",
      "mailaddress": "info@lgwedding.de",
      "clubname": "Lauf-Gemeinschaft Wedding e. V."
    },
    {
      "webpage": "",
      "latlng": "52.5740509, 13.3675003",
      "phonenumber": "01743151849 oder 4590900",
      "postcode": "13409 Berlin",
      "address": "Emmentaler Stra\u00dfe 153 ",
      "clublink": "Berliner Sport Club Reinickendorf 21 e. V.",
      "mailaddress": "",
      "clubname": "Berliner Sport Club Reinickendorf 21 e. V."
    },
    {
      "webpage": "",
      "latlng": "52.5291595, 13.30054",
      "phonenumber": "030 - 334 62 79",
      "postcode": "10589 Berlin",
      "address": "Olbersstr. 24 ",
      "clublink": "Sportangler-Verein Oberhavel e. V.",
      "mailaddress": "bliefert.wolfgang@t-online.de",
      "clubname": "Sportangler-Verein Oberhavel e. V."
    },
    {
      "webpage": "www.hellersdorfer-maulwuerfe.de",
      "latlng": "52.5159111, 13.5897198",
      "phonenumber": "",
      "postcode": "12621 Berlin",
      "address": "Hellersdorfer Str. 22 a ",
      "clublink": "Turn- und Sportverein Hellersdorfer Maulw\u00fcrfe",
      "mailaddress": "webmaster@hellersdorfer-maulwuerfe.de",
      "clubname": "Turn- und Sportverein Hellersdorfer Maulw\u00fcrfe"
    },
    {
      "webpage": "",
      "latlng": "52.3974304, 13.5227699",
      "phonenumber": "67891144",
      "postcode": "12529 Sch\u00f6nefeld",
      "address": "Wehrmathen 28 ",
      "clublink": "Versehrten Sportverein Neuk\u00f6lln e. V.",
      "mailaddress": "margret.hinz@gmx.de",
      "clubname": "Versehrten Sportverein Neuk\u00f6lln e. V."
    },
    {
      "webpage": "",
      "latlng": "52.5240097, 13.6293802",
      "phonenumber": "",
      "postcode": "12623 Berlin",
      "address": "Marderweg 15 ",
      "clublink": "Fit for Physio e. V.",
      "mailaddress": "",
      "clubname": "Fit for Physio e. V."
    },
    {
      "webpage": "",
      "latlng": "52.4367218, 13.5583696",
      "phonenumber": "1772300088",
      "postcode": "12489 Berlin",
      "address": "Zinsgutstra\u00dfe 54 ",
      "clublink": "Kanusportverein Neu Ahlbeck e. V.",
      "mailaddress": "reginarose@arcor.de",
      "clubname": "Kanusportverein Neu Ahlbeck e. V."
    },
    {
      "webpage": "www.s-v-z.de",
      "latlng": "52.5475197, 13.3055201",
      "phonenumber": "1774550918",
      "postcode": "13627 Berlin",
      "address": "Saatwinkler Damm 70 - 71 ",
      "clublink": "BSG Sachverst\u00e4ndigen Zentrum Berlin (BSG SVZ Berlin)",
      "mailaddress": "michael.dzewas@s-v-z.de",
      "clubname": "BSG Sachverst\u00e4ndigen Zentrum Berlin (BSG SVZ Berlin)"
    },
    {
      "webpage": "www.fc-ballcelona.de",
      "latlng": "52.5733986, 13.5162802",
      "phonenumber": "1736008140",
      "postcode": "13059 Berlin",
      "address": "Am Gutshof 1 a ",
      "clublink": "FC Ballcelona e. V.",
      "mailaddress": "info@fc-ballcelona.de",
      "clubname": "FC Ballcelona e. V."
    },
    {
      "webpage": "",
      "latlng": "52.545639, 13.2439203",
      "phonenumber": "69598595",
      "postcode": "13599 Berlin",
      "address": "K\u00fcsterstra\u00dfe 24 ",
      "clublink": "Berlin T\u00fcrkspor",
      "mailaddress": "",
      "clubname": "Berlin T\u00fcrkspor"
    },
    {
      "webpage": "www.hansu-ev.com",
      "latlng": "52.4639397, 13.47118",
      "phonenumber": "6854643",
      "postcode": "12057 Berlin",
      "address": "Heinrich-Schlusnus-Stra\u00dfe 13 ",
      "clublink": "Hansu e. V.",
      "mailaddress": "vorstand@hansu-ev.com",
      "clubname": "Hansu e. V."
    },
    {
      "webpage": "www.ilyo.de",
      "latlng": "52.4457016, 13.3845396",
      "phonenumber": "92250781 / 0177-4756173",
      "postcode": "12105 Berlin",
      "address": "Kaiserstra\u00dfe 111 ",
      "clublink": "Berliner Taekwondo Club Ilyo e. V.",
      "mailaddress": "info@ilyo.de",
      "clubname": "Berliner Taekwondo Club Ilyo e. V."
    },
    {
      "webpage": "www.stern1900.de",
      "latlng": "52.4669418, 13.3141899",
      "phonenumber": "8215665",
      "postcode": "14197 Berlin",
      "address": "Kreuznacher Stra\u00dfe 29 ",
      "clublink": "Steglitzer Fu\u00dfball-Club Stern 1900 e. V.",
      "mailaddress": "stern1900@t-online.de",
      "clubname": "Steglitzer Fu\u00dfball-Club Stern 1900 e. V."
    },
    {
      "webpage": "",
      "latlng": "52.6184692, 13.3168697",
      "phonenumber": "",
      "postcode": "13467 Berlin",
      "address": "Schildower Stra\u00dfe 10 ",
      "clublink": "Anglerverein Goldhaken Hermsdorf e. V.",
      "mailaddress": "",
      "clubname": "Anglerverein Goldhaken Hermsdorf e. V."
    },
    {
      "webpage": "www.tennis-rahnsdorf.de",
      "latlng": "52.4326096, 13.7173595",
      "phonenumber": "6571238",
      "postcode": "12589 Berlin",
      "address": "Gr\u00fcnelinder Stra\u00dfe 31 a ",
      "clublink": "Tennis-Club Gr\u00fcn-Wei\u00df Rahnsdorf e. V.",
      "mailaddress": "info@tennis-rahnsdorf.de",
      "clubname": "Tennis-Club Gr\u00fcn-Wei\u00df Rahnsdorf e. V."
    },
    {
      "webpage": "www.tusli.de",
      "latlng": "52.4367294, 13.3218098",
      "phonenumber": "76689062",
      "postcode": "12207 Berlin",
      "address": "Krahmerstra\u00dfe 15 ",
      "clublink": "Turn- und Sportverein Lichterfelde von 1887 (Berlin) e.V.",
      "mailaddress": "info@tusli.de",
      "clubname": "Turn- und Sportverein Lichterfelde von 1887 (Berlin) e.V."
    },
    {
      "webpage": "www.matar-ev.de",
      "latlng": "52.5132599, 13.49018",
      "phonenumber": "",
      "postcode": "10365 Berlin",
      "address": "Alfredstra\u00dfe 10 ",
      "clublink": "Martial Arts Training and Repetition e. V.",
      "mailaddress": "kontaktperson@matar-ev.de",
      "clubname": "Martial Arts Training and Repetition e. V."
    },
    {
      "webpage": "www.Freizeitvolleyball.de",
      "latlng": "52.4517899, 13.3709097",
      "phonenumber": "753 72 47",
      "postcode": "12105 Berlin",
      "address": "Attilastra\u00dfe 147 ",
      "clublink": "Freizeitvolleyball Berlin e. V.",
      "mailaddress": "Info@Freizeitvolleyball.de",
      "clubname": "Freizeitvolleyball Berlin e. V."
    },
    {
      "webpage": "www.kung-fu-berlin.com",
      "latlng": "52.5507011, 13.5130396",
      "phonenumber": "",
      "postcode": "13053 Berlin",
      "address": "Gehrenseestra\u00dfe 4 ",
      "clublink": "Kunstkampfsport-Club e. V.",
      "mailaddress": "vorstand@kung-fu-berlin.com",
      "clubname": "Kunstkampfsport-Club e. V."
    },
    {
      "webpage": "www.turnerschaft-schoeneberg.de",
      "latlng": "52.4915886, 13.3639698",
      "phonenumber": "2169026",
      "postcode": "10827 Berlin",
      "address": "Gro\u00dfg\u00f6rschenstra\u00dfe 35 ",
      "clublink": "Turnerschaft Sch\u00f6neberg e. V.",
      "mailaddress": "turnerschaft.schoeneberg@t-online.de",
      "clubname": "Turnerschaft Sch\u00f6neberg e. V."
    },
    {
      "webpage": "www.einheit-pankow.de",
      "latlng": "52.5620308, 13.4293003",
      "phonenumber": "030 68326813",
      "postcode": "13089 Berlin",
      "address": "Treskowstra\u00dfe 31 ",
      "clublink": "Sportgemeinschaft Einheit Pankow e. V.",
      "mailaddress": "P.Rudloff@einheit-pankow.de",
      "clubname": "Sportgemeinschaft Einheit Pankow e. V."
    },
    {
      "webpage": "",
      "latlng": "52.4594307, 13.4268303",
      "phonenumber": "6259488",
      "postcode": "12347 Berlin",
      "address": "Andreasberger Stra\u00dfe 10 ",
      "clublink": "Sport Club Union S\u00fcdost 1924 e. V.",
      "mailaddress": "usoreschke@hotmail.de",
      "clubname": "Sport Club Union S\u00fcdost 1924 e. V."
    },
    {
      "webpage": "www.teamwork-berlin.eu",
      "latlng": "52.6098709, 13.3477697",
      "phonenumber": "4023865",
      "postcode": "13469 Berlin",
      "address": "AEG-Siedlung 42 ",
      "clublink": "Teamwork Berlin e. V.",
      "mailaddress": "info@teamwork-berlin.eu",
      "clubname": "Teamwork Berlin e. V."
    },
    {
      "webpage": "",
      "latlng": "52.5433998, 13.4526596",
      "phonenumber": "68836738",
      "postcode": "10409 Berlin",
      "address": "Michelangelostr. 77 ",
      "clublink": "Sportverein Empor Lichtenberg e. V.",
      "mailaddress": "sreimer@nexgo.de",
      "clubname": "Sportverein Empor Lichtenberg e. V."
    },
    {
      "webpage": "",
      "latlng": "52.51607131958008, 13.37697982788086",
      "phonenumber": "1797360970",
      "postcode": "13413 Berlin",
      "address": "Postfach 26 04 14 ",
      "clublink": "Breakers e. V. 1996",
      "mailaddress": "",
      "clubname": "Breakers e. V. 1996"
    },
    {
      "webpage": "",
      "latlng": "52.4757881, 13.0132504",
      "phonenumber": "3320822929",
      "postcode": "14476 Potsdam OT Fahrland",
      "address": "An den Leddigen 3 ",
      "clublink": "Sportfischerverein Nordwest e. V.",
      "mailaddress": "LittleM-1963@gmx.de",
      "clubname": "Sportfischerverein Nordwest e. V."
    },
    {
      "webpage": "",
      "latlng": "52.5438919, 13.3679304",
      "phonenumber": "030 27580213",
      "postcode": "13347 Berlin",
      "address": "Lindowerstra\u00dfe 18 ",
      "clublink": "Damo Chuan Kung Fu e. V.",
      "mailaddress": "info@damo-chuan.de",
      "clubname": "Damo Chuan Kung Fu e. V."
    },
    {
      "webpage": "www.berlin-radsport.de/vereine/rvberlin",
      "latlng": "52.5117493, 13.3133001",
      "phonenumber": "312 83 70",
      "postcode": "10625 Berlin",
      "address": "Bismarckstra\u00dfe 102 ",
      "clublink": "Radfahrer-Vereinigung Berlin 1888 e. V.",
      "mailaddress": "wscheibner@web.de",
      "clubname": "Radfahrer-Vereinigung Berlin 1888 e. V."
    },
    {
      "webpage": "www.sportgeist-berlin.de",
      "latlng": "52.4866409, 13.3182297",
      "phonenumber": "63379390",
      "postcode": "10713 Berlin",
      "address": "Berliner Stra\u00dfe 46 ",
      "clublink": "Sportgeist-Berlin e. V.",
      "mailaddress": "info@sportgeist-berlin.de",
      "clubname": "Sportgeist-Berlin e. V."
    },
    {
      "webpage": "",
      "latlng": "52.4539986, 13.4383497",
      "phonenumber": "0177-791 22 00",
      "postcode": "12347 Berlin",
      "address": "Britzer Damm 99 ",
      "clublink": "Verein f\u00fcr Bewegungsspiele Concordia Britz 1916 e. V.",
      "mailaddress": "bi-britz@versanet.de",
      "clubname": "Verein f\u00fcr Bewegungsspiele Concordia Britz 1916 e. V."
    },
    {
      "webpage": "",
      "latlng": "52.6205788, 13.23633",
      "phonenumber": "1723016288",
      "postcode": "13503 Berlin",
      "address": "Ruppiner Chaussee 337 ",
      "clublink": "Spielgemeinschaft Raddatz",
      "mailaddress": "boss53@web.de",
      "clubname": "Spielgemeinschaft Raddatz"
    },
    {
      "webpage": "",
      "latlng": "52.5921516, 13.2752705",
      "phonenumber": "4336842",
      "postcode": "13507 Berlin",
      "address": "Gabrielenstra\u00dfe 37 a/b ",
      "clublink": "Anglerclub Petri Heil e. V.",
      "mailaddress": "",
      "clubname": "Anglerclub Petri Heil e. V."
    },
    {
      "webpage": "www.gutsmuths.berlin",
      "latlng": "52.5188103, 13.3305702",
      "phonenumber": "(030) 393 24 40",
      "postcode": "10555 Berlin",
      "address": "Wullenweberstra\u00dfe 15 ",
      "clublink": "Turn- und Sportverein GutsMuths 1861 e. V.",
      "mailaddress": "info@tsvgutsmuths-berlin.de",
      "clubname": "Turn- und Sportverein GutsMuths 1861 e. V."
    },
    {
      "webpage": "www.ksc-obi.de",
      "latlng": "52.5406418, 13.6016197",
      "phonenumber": "1728820149",
      "postcode": "12627 Berlin",
      "address": "Kastanienallee 62 ",
      "clublink": "Kampf-Sport-Club Obi e. V.",
      "mailaddress": "praesident@ksc-obi.de",
      "clubname": "Kampf-Sport-Club Obi e. V."
    },
    {
      "webpage": "",
      "latlng": "52.5191994, 13.38972",
      "phonenumber": "0170-7087777",
      "postcode": "10117 Berlin",
      "address": "Friedrichstr. 95 ",
      "clublink": "M-1 MMA Germany e.V.",
      "mailaddress": "info@m-1mma.de",
      "clubname": "M-1 MMA Germany e.V."
    },
    {
      "webpage": "www.finforfun.de",
      "latlng": "52.4976616, 13.3505096",
      "phonenumber": "85613192",
      "postcode": "10777 Berlin",
      "address": "Nollendorfstra\u00dfe 20 ",
      "clublink": "fin for fun Sportverein e. V.",
      "mailaddress": "gf.vorstand@finforfun.de",
      "clubname": "fin for fun Sportverein e. V."
    },
    {
      "webpage": "www.seemannschaftberlin.de",
      "latlng": "52.5100784, 13.1991596",
      "phonenumber": "3234412",
      "postcode": "13595 Berlin",
      "address": "Am Pichelssee 7 ",
      "clublink": "Seemannschaft Berlin e. V.",
      "mailaddress": "ingu.herdam@t-online.de",
      "clubname": "Seemannschaft Berlin e. V."
    },
    {
      "webpage": "",
      "latlng": "52.4232597, 13.37111",
      "phonenumber": "7211887",
      "postcode": "12277 Berlin",
      "address": "Marienfelder Allee 24 ",
      "clublink": "Sport-Club Lankwitz 1949 e. V.",
      "mailaddress": "",
      "clubname": "Sport-Club Lankwitz 1949 e. V."
    },
    {
      "webpage": "http://www.friedrichshainer-budo-club.de",
      "latlng": "52.5667381, 13.5290499",
      "phonenumber": "0171-195 33 05",
      "postcode": "13057 Berlin",
      "address": "Welsestra\u00dfe 27 ",
      "clublink": "1. Friedrichshainer Budo-Club '90 e.V.",
      "mailaddress": "Bensai@gmx.de",
      "clubname": "1. Friedrichshainer Budo-Club '90 e.V."
    },
    {
      "webpage": "www.ascpanketal.de",
      "latlng": "52.6212196, 13.4809704",
      "phonenumber": "030-9435120",
      "postcode": "13125 Berlin",
      "address": "Achtrutenberg 53 ",
      "clublink": "ASC Panketal e. V.",
      "mailaddress": "ascpanketal@web.de",
      "clubname": "ASC Panketal e. V."
    },
    {
      "webpage": "",
      "latlng": "52.411129, 13.5947399",
      "phonenumber": "92903446",
      "postcode": "12527 Berlin",
      "address": "Regattastra\u00dfe 249 ",
      "clublink": "Behindertensportverein Wilhelmstrand",
      "mailaddress": "mariclaerchen@googlemail.com",
      "clubname": "Behindertensportverein Wilhelmstrand"
    },
    {
      "webpage": "",
      "latlng": "52.4162903, 13.5873203",
      "phonenumber": "1727570855",
      "postcode": "12557 Berlin",
      "address": "Peter-Gast-Weg 2a ",
      "clublink": "Motorbootclub Wendenschloss e. V.",
      "mailaddress": "sportwart.mbc.w@mail.de",
      "clubname": "Motorbootclub Wendenschloss e. V."
    },
    {
      "webpage": "",
      "latlng": "52.5356789, 13.26723",
      "phonenumber": "54 85 92 86",
      "postcode": "13629 Berlin",
      "address": "Grammestr. 2 ",
      "clublink": "1. Berliner Kleinpferdeverein e. V.",
      "mailaddress": "",
      "clubname": "1. Berliner Kleinpferdeverein e. V."
    },
    {
      "webpage": "www.berlinbuffalos.de",
      "latlng": "52.4610786, 13.3715496",
      "phonenumber": "030 28853663",
      "postcode": "12103 Berlin",
      "address": "Rothariweg 23 ",
      "clublink": "Berlin Buffalos e. V.",
      "mailaddress": "kontakt@berlinbuffalos.de",
      "clubname": "Berlin Buffalos e. V."
    },
    {
      "webpage": "",
      "latlng": "52.4739685, 13.4433002",
      "phonenumber": "15231929362",
      "postcode": "12043 Berlin",
      "address": "Karl-Marx-Platz 24 ",
      "clublink": "Fakhro Berlin e. V.",
      "mailaddress": "",
      "clubname": "Fakhro Berlin e. V."
    },
    {
      "webpage": "www.blau-weiss-tegel.de",
      "latlng": "52.6111717, 13.3238468",
      "phonenumber": "1719585128",
      "postcode": "13407 Berlin",
      "address": "Horberstr. 33 ",
      "clublink": "Wassersportclub Blau-Wei\u00df Tegel e. V.",
      "mailaddress": "TxReimann@gmx.de",
      "clubname": "Wassersportclub Blau-Wei\u00df Tegel e. V."
    },
    {
      "webpage": "www.bfc80.de.vu",
      "latlng": "52.5551414, 13.1704302",
      "phonenumber": "3317813",
      "postcode": "13589 Berlin",
      "address": "Pionierstra\u00dfe 159 a ",
      "clublink": "Box- und Freizeitsport Club 80 e. V.",
      "mailaddress": "wiede.mel@web.de",
      "clubname": "Box- und Freizeitsport Club 80 e. V."
    },
    {
      "webpage": "www.bsg-rank-xerox.de",
      "latlng": "52.4039383, 13.4101496",
      "phonenumber": "7455312",
      "postcode": "12305 Berlin",
      "address": "Bernauer Stra\u00dfe 116 ",
      "clublink": "BSG Rank Xerox",
      "mailaddress": "marioferrin@web.de",
      "clubname": "BSG Rank Xerox"
    },
    {
      "webpage": "",
      "latlng": "52.4734497, 13.3356199",
      "phonenumber": "851 60 82",
      "postcode": "12159 Berlin",
      "address": "Lauterstra\u00dfe 24 ",
      "clublink": "FSV Berlin-Club",
      "mailaddress": "abafeja@t-online.de",
      "clubname": "FSV Berlin-Club"
    },
    {
      "webpage": "",
      "latlng": "52.5744896, 13.3554001",
      "phonenumber": "34667936",
      "postcode": "13407 Berlin",
      "address": "Alt-Reinickendorf 50/51 ",
      "clublink": "dartinsel e. V.",
      "mailaddress": "",
      "clubname": "dartinsel e. V."
    },