{
  "clubdata": [
    {
      "phonenumber": "902422486",
      "postcode": "10179 Berlin",
      "clublink": "BSG Finanzamt Tiergarten",
      "position": {
        "lat": 52.511261,
        "lng": 13.4121599
      },
      "mailaddress": "teny-w@gmx.de",
      "address": "Neue Jakobstr. 6/7 ",
      "web": "",
      "clubname": "BSG Finanzamt Tiergarten"
    },
    {
      "phonenumber": "0160/7483445",
      "postcode": "13156 Berlin",
      "clublink": "Volleyballverein V\u00f6lkerfreundschaft Berlin e. V.",
      "position": {
        "lat": 52.5818596,
        "lng": 13.3864603
      },
      "mailaddress": "Uwe.Schuster@freenet.de",
      "address": "Zingergraben 27 ",
      "webpage": "",
      "clubname": "Volleyballverein V\u00f6lkerfreundschaft Berlin e. V."
    },
    {
      "phonenumber": "3452494464",
      "postcode": "06184 D\u00f6lbau",
      "clublink": "Freizeitsportverein Charlottenburg e. V.",
      "position": {
        "lat": 51.4667702,
        "lng": 12.0591297
      },
      "mailaddress": "stein.angelika@web.de",
      "address": "Am Pfaffengraben 17 ",
      "webpage": "",
      "clubname": "Freizeitsportverein Charlottenburg e. V."
    },
    {
      "phonenumber": "01629842257",
      "postcode": "10315 Berlin",
      "clublink": "Tauchclub fez e.V.",
      "position": {
        "lat": 52.5102501,
        "lng": 13.5076599
      },
      "mailaddress": "alicewittmann@web.de",
      "address": "Alt-Friedrichsfelde 10 ",
      "webpage": "www.tcfez.de",
      "clubname": "Tauchclub fez e.V."
    },
    {
      "phonenumber": "4139405",
      "postcode": "13405 Berlin",
      "clublink": "Sch\u00fctzengilde 1972 Berlin Reinickendorf e. V.",
      "position": {
        "lat": 52.5671082,
        "lng": 13.3096504
      },
      "mailaddress": "wolfgangphilips@hotmail.de",
      "address": "Scharnweberstra\u00dfe 81 a ",
      "webpage": "www.sgi-berlin-reinickendorf.de",
      "clubname": "Sch\u00fctzengilde 1972 Berlin Reinickendorf e. V."
    },
    {
      "phonenumber": "36801609",
      "postcode": "14089 Berlin",
      "clublink": "Sport Club Gatow 1931 e. V.",
      "position": {
        "lat": 52.4588318,
        "lng": 13.1312799
      },
      "mailaddress": "BerndMTrepte@gmx.de",
      "address": "Weihenzeller Steig 5 ",
      "webpage": "www.sc-gatow.de",
      "clubname": "Sport Club Gatow 1931 e. V."
    },
    {
      "phonenumber": "3361734817",
      "postcode": "15517 F\u00fcrstenwalde",
      "clublink": "Berlin City Bouncers SC e.V.",
      "position": {
        "lat": 52.3481598,
        "lng": 14.0459604
      },
      "mailaddress": "community@berlin-city-bouncers.de",
      "address": "Gottfried-B\u00fcrger-Stra\u00dfe 4 ",
      "webpage": "www.berlin-city-bouncers.de",
      "clubname": "Berlin City Bouncers SC e.V."
    },
    {
      "phonenumber": "01731691231",
      "postcode": "10439 Berlin",
      "clublink": "Sportgemeinschaft Blau-Wei\u00df Friedrichshain e. V.",
      "position": {
        "lat": 52.551899,
        "lng": 13.4012604
      },
      "mailaddress": "philips@bwfriedrichshain.de",
      "address": "Isl\u00e4ndische Stra\u00dfe 13 ",
      "webpage": "www.bwfriedrichshain.de",
      "clubname": "Sportgemeinschaft Blau-Wei\u00df Friedrichshain e. V."
    },
    {
      "phonenumber": "030-79 70 28 53",
      "postcode": "12163 Berlin",
      "clublink": "Sonne 08 Berlin Wannsee e. V.",
      "position": {
        "lat": 52.4607811,
        "lng": 13.3193398
      },
      "mailaddress": "helmutnagoya@gmail.com",
      "address": "Zimmermannstr. 17 ",
      "webpage": "",
      "clubname": "Sonne 08 Berlin Wannsee e. V."
    },
    {
      "phonenumber": "9024-35759",
      "postcode": "14979 Gro\u00dfbeeren",
      "clublink": "BSG Tischtennisgemeinschaft der Oberfinanzdirektion Berlin",
      "position": {
        "lat": 52.3611603,
        "lng": 13.3092499
      },
      "mailaddress": "jurgen.deckwerth@web.de",
      "address": "Ringstr. 14 ",
      "webpage": "",
      "clubname": "BSG Tischtennisgemeinschaft der Oberfinanzdirektion Berlin"
    },
    {
      "phonenumber": "8526722",
      "postcode": "12203 Berlin",
      "clublink": "Kegelsportgemeinschaft des Postamts Berlin-Steglitz",
      "position": {
        "lat": 52.4464302,
        "lng": 13.2973299
      },
      "mailaddress": "ksg41@t-online.de",
      "address": "Margaretenstra\u00dfe 30 a ",
      "webpage": "",
      "clubname": "Kegelsportgemeinschaft des Postamts Berlin-Steglitz"
    },
    {
      "phonenumber": "304732426",
      "postcode": "13088 Berlin",
      "clublink": "Segel-Club Rohrwall e. V.",
      "position": {
        "lat": 52.5585785,
        "lng": 13.4652395
      },
      "mailaddress": "martin.rosengarten@t-online.de",
      "address": "Liebermannstr. 30h ",
      "webpage": "www.sc-rohrwall.de",
      "clubname": "Segel-Club Rohrwall e. V."
    },
    {
      "phonenumber": "017623623529",
      "postcode": "12167 Berlin",
      "clublink": "Club Deportivo Latino Berlin e. V.",
      "position": {
        "lat": 52.4543495,
        "lng": 13.3286695
      },
      "mailaddress": "christian312008@hotmail.de",
      "address": "Albrechtstra\u00dfe 109 ",
      "webpage": "www.club-deportivolatino-berlin.de",
      "clubname": "Club Deportivo Latino Berlin e. V."
    },
    {
      "phonenumber": "",
      "postcode": "12527 Berlin",
      "clublink": "Gesund durchs Leben e.V.",
      "position": {
        "lat": 52.4180984,
        "lng": 13.5788298
      },
      "mailaddress": "",
      "address": "Regattastr. 114-120 ",
      "webpage": "",
      "clubname": "Gesund durchs Leben e.V."
    },
    {
      "phonenumber": "676 51 64",
      "postcode": "12526 Berlin",
      "clublink": "Freizeitgymnastikverein Bohnsdorf e. V.",
      "position": {
        "lat": 52.4043198,
        "lng": 13.5765896
      },
      "mailaddress": "",
      "address": "Gr\u00fcnfinkenweg 4 ",
      "webpage": "freizeitgymnastikverein-bohnsdorf.de",
      "clubname": "Freizeitgymnastikverein Bohnsdorf e. V."
    },
    {
      "phonenumber": "",
      "postcode": "10117 Berlin",
      "clublink": "ASAF - Berlin e. V.",
      "position": {
        "lat": 52.5172005,
        "lng": 13.3803797
      },
      "mailaddress": "",
      "address": "Wilhelmstra\u00dfe 69 ",
      "webpage": "",
      "clubname": "ASAF - Berlin e. V."
    },
    {
      "phonenumber": "4382139",
      "postcode": "13503 Berlin",
      "clublink": "BSG Tetra Pak Berlin",
      "position": {
        "lat": 52.6256905,
        "lng": 13.2262001
      },
      "mailaddress": "Michael.Maurer@tetrapak.com",
      "address": "Hennigsdorfer Stra\u00dfe 159 ",
      "webpage": "",
      "clubname": "BSG Tetra Pak Berlin"
    },
    {
      "phonenumber": "3342302035",
      "postcode": "13057 Berlin",
      "clublink": "Budoverein Dynamo Hoppegarten-Berlin e. V.",
      "position": {
        "lat": 52.5622711,
        "lng": 13.5215502
      },
      "mailaddress": "info@dynamo-hoppegarten.de",
      "address": "Seehausener Stra\u00dfe 46 ",
      "webpage": "dynamo-hoppegarten.de",
      "clubname": "Budoverein Dynamo Hoppegarten-Berlin e. V."
    },
    {
      "phonenumber": "972 88 22",
      "postcode": "10367 Berlin",
      "clublink": "SV Secura Berlin e.V.",
      "position": {
        "lat": 52.531559,
        "lng": 13.4777899
      },
      "mailaddress": "maiwer10@web.de",
      "address": "Wei\u00dfenseer Weg 18 ",
      "webpage": "",
      "clubname": "SV Secura Berlin e.V."
    },
    {
      "phonenumber": "",
      "postcode": "13599 Berlin",
      "clublink": "Veteran Flambeau Club Berlin e.V.",
      "position": {
        "lat": 52.5562248,
        "lng": 13.2288303
      },
      "mailaddress": "vfcb@googlegroups.com",
      "address": "Ruppiner-See-Str. 47 ",
      "webpage": "www.vfcb.net",
      "clubname": "Veteran Flambeau Club Berlin e.V."
    },
    {
      "phonenumber": "55653329",
      "postcode": "12487 Berlin",
      "clublink": "Sportgemeinschaft Gr\u00fcn-Wei\u00df Berlin-Baumschulenweg e. V.",
      "position": {
        "lat": 52.4461403,
        "lng": 13.5057096
      },
      "mailaddress": "uwe-gwstar@web.de",
      "address": "Sterndamm 72 ",
      "webpage": "",
      "clubname": "Sportgemeinschaft Gr\u00fcn-Wei\u00df Berlin-Baumschulenweg e. V."
    },
    {
      "phonenumber": "",
      "postcode": "13442 Berlin",
      "clublink": "Okinawa Judo-Karate-Club e. V.",
      "position": {
        "lat": 52.5160713196,
        "lng": 13.3769798279
      },
      "mailaddress": "",
      "address": "Postfach 28 02 12 ",
      "webpage": "",
      "clubname": "Okinawa Judo-Karate-Club e. V."
    },
    {
      "phonenumber": "44017276",
      "postcode": "10435 Berlin",
      "clublink": "Fechtclub Berlin S\u00fcdwest e. V.",
      "position": {
        "lat": 52.5378418,
        "lng": 13.4194002
      },
      "mailaddress": "ra@immorecht.info",
      "address": "Kollwitzstra\u00dfe 81 ",
      "webpage": "www.fechtclub-berlin.de",
      "clubname": "Fechtclub Berlin S\u00fcdwest e. V."
    },
    {
      "phonenumber": "9162616",
      "postcode": "13158 Berlin",
      "clublink": "Finanzsportverein Berlin e.V.",
      "position": {
        "lat": 52.5857086,
        "lng": 13.3729897
      },
      "mailaddress": "",
      "address": "Edelwei\u00dfstra\u00dfe 24 ",
      "webpage": "",
      "clubname": "Finanzsportverein Berlin e.V."
    },
    {
      "phonenumber": "305647025",
      "postcode": "12623 Berlin",
      "clublink": "Pyongwon Marzahn e. V.",
      "position": {
        "lat": 52.5276108,
        "lng": 13.6391697
      },
      "mailaddress": "fpyongwontkd@web.de",
      "address": "Lemkestra\u00dfe 98 b ",
      "webpage": "www.pyongwon.net",
      "clubname": "Pyongwon Marzahn e. V."
    },
    {
      "phonenumber": "6559165",
      "postcode": "12557 Berlin",
      "clublink": "Sportverein Energie Berlin e. V.",
      "position": {
        "lat": 52.4455299,
        "lng": 13.5700903
      },
      "mailaddress": "energieberlin@t-online.de",
      "address": "Gutenbergstra\u00dfe 4 - 5 ",
      "webpage": "www.sv-energie-berlin.de",
      "clubname": "Sportverein Energie Berlin e. V."
    },
    {
      "phonenumber": "0173-351 36 63",
      "postcode": "13187 Berlin",
      "clublink": "Sportfreunde Berlin 06 e. V.",
      "position": {
        "lat": 52.5647011,
        "lng": 13.3978577
      },
      "mailaddress": "robert.brichta@sportfreunde-berlin.de",
      "address": "In den Florag\u00e4rten 3 ",
      "webpage": "www.sportfreunde-berlin.de",
      "clubname": "Sportfreunde Berlin 06 e. V."
    },
    {
      "phonenumber": "851 86 67",
      "postcode": "12163 Berlin",
      "clublink": "Verein Schm\u00f6ckwitzer Segler e. V.",
      "position": {
        "lat": 52.4658203,
        "lng": 13.3248997
      },
      "mailaddress": "detlefney@web.de",
      "address": "Bornstra\u00dfe 8 ",
      "webpage": "",
      "clubname": "Verein Schm\u00f6ckwitzer Segler e. V."
    },
    {
      "phonenumber": "",
      "postcode": "13591 Berlin",
      "clublink": "Basketball Gemeinschaft Spandau e. V.",
      "position": {
        "lat": 52.5338898,
        "lng": 13.1491899
      },
      "mailaddress": "",
      "address": "Oldesloer Weg 30 ",
      "webpage": "",
      "clubname": "Basketball Gemeinschaft Spandau e. V."
    },
    {
      "phonenumber": "015111878326",
      "postcode": "12524 Berlin",
      "clublink": "Perfect Taekwondo e. V.",
      "position": {
        "lat": 52.4224892,
        "lng": 13.5347204
      },
      "mailaddress": "perfecttaekwondo@web.de",
      "address": "Semmelwei\u00dfstr. 39b ",
      "webpage": "www.perfect-taekwondo-ev.de",
      "clubname": "Perfect Taekwondo e. V."
    },
    {
      "phonenumber": "017644409772",
      "postcode": "13405 Berlin",
      "clublink": "1. Squash Club Berlin e.V.",
      "position": {
        "lat": 52.5568085,
        "lng": 13.3036499
      },
      "mailaddress": "hans.sucker@web.de",
      "address": "Rue Charles Calmette 11 d ",
      "webpage": "www.1scb.com",
      "clubname": "1. Squash Club Berlin e.V."
    },
    {
      "phonenumber": "",
      "postcode": "13437 Berlin",
      "clublink": "BSG Bezirksamt Reinickendorf",
      "position": {
        "lat": 52.5889816,
        "lng": 13.3240995
      },
      "mailaddress": "bsgbar@reinickendorf.berlin.de",
      "address": "Eichborndamm 215-239 ",
      "webpage": "www.bsgbareinickendorf.de",
      "clubname": "BSG Bezirksamt Reinickendorf"
    },
    {
      "phonenumber": "",
      "postcode": "13593 Berlin",
      "clublink": "Anglerverein Fr\u00fchauf Spandau 1928 e. V.",
      "position": {
        "lat": 52.5137901,
        "lng": 13.1723003
      },
      "mailaddress": "scrumpyjack@web.de",
      "address": "Steinmeisterweg 24 ",
      "webpage": "",
      "clubname": "Anglerverein Fr\u00fchauf Spandau 1928 e. V."
    },
    {
      "phonenumber": "0152-2999 4618",
      "postcode": "10557 Berlin",
      "clublink": "Bouledozer e.V.",
      "position": {
        "lat": 52.5315094,
        "lng": 13.3529902
      },
      "mailaddress": "andre_starkloff@gmx.de",
      "address": "Kruppstr. 5 ",
      "webpage": "",
      "clubname": "Bouledozer e.V."
    },
    {
      "phonenumber": "01622153962",
      "postcode": "12045 Berlin",
      "clublink": "Aktivist Runder Ball",
      "position": {
        "lat": 52.4845886,
        "lng": 13.4401999
      },
      "mailaddress": "aktivistrunderball@googlemail.com",
      "address": "Elbestra\u00dfe 30 ",
      "webpage": "",
      "clubname": "Aktivist Runder Ball"
    },
    {
      "phonenumber": "030-7459957",
      "postcode": "12309 Berlin",
      "clublink": "Sportvereinigung Deutsche Jugendkraft Westen zu Berlin e. V.",
      "position": {
        "lat": 52.3989487,
        "lng": 13.4187298
      },
      "mailaddress": "vorstand@djk-westen23.de",
      "address": "Krontalstra\u00dfe 82 ",
      "webpage": "www.djk-westen23.de",
      "clubname": "Sportvereinigung Deutsche Jugendkraft Westen zu Berlin e. V."
    },
    {
      "phonenumber": "515 31 147",
      "postcode": "10319 Berlin",
      "clublink": "Segelgemeinschaft Wendenschloss e. V.",
      "position": {
        "lat": 52.5039482,
        "lng": 13.5208702
      },
      "mailaddress": "inis.adloff@gmx.de",
      "address": "Am Tierpark 41 ",
      "webpage": "www.sgwendenschloss.de",
      "clubname": "Segelgemeinschaft Wendenschloss e. V."
    },
    {
      "phonenumber": "423 06 87",
      "postcode": "10407 Berlin",
      "clublink": "Berliner Turn-Verein Olympia e. V.",
      "position": {
        "lat": 52.5313301,
        "lng": 13.4489603
      },
      "mailaddress": "info@btv-olympia.de",
      "address": "Paul-Heyse-Stra\u00dfe 25 ",
      "webpage": "www.btv-olympia.de",
      "clubname": "Berliner Turn-Verein Olympia e. V."
    },
    {
      "phonenumber": "51503217",
      "postcode": "12435 Berlin",
      "clublink": "BSV/VEAG-Berlin e. V.",
      "position": {
        "lat": 52.4961815,
        "lng": 13.4548597
      },
      "mailaddress": "andrea.eichler@50hertz.com",
      "address": "Eichenstra\u00dfe 3 A ",
      "webpage": "",
      "clubname": "BSV/VEAG-Berlin e. V."
    },
    {
      "phonenumber": "3612817",
      "postcode": "13595 Berlin",
      "clublink": "Wander-Segler-Verein 1922 e. V.",
      "position": {
        "lat": 52.5100594,
        "lng": 13.2142696
      },
      "mailaddress": "vorstand@wsv22ev.de",
      "address": "Heerstra\u00dfe 168 ",
      "webpage": "www.wsv22ev.de",
      "clubname": "Wander-Segler-Verein 1922 e. V."
    },
    {
      "phonenumber": "962 099 28/920 11 05",
      "postcode": "13051 Berlin",
      "clublink": "Kietz f\u00fcr Kids - Freizeitsport e. V.",
      "position": {
        "lat": 52.5696106,
        "lng": 13.4933901
      },
      "mailaddress": "info@kietz-fuer-kids-freizeitsport.de",
      "address": "Zum Hechtgraben 1 ",
      "webpage": "www.kietz-fuer-kids-freizeitsport.de",
      "clubname": "Kietz f\u00fcr Kids - Freizeitsport e. V."
    },
    {
      "phonenumber": "53604968",
      "postcode": "10407 Berlin",
      "clublink": "Sportverein Berlin-Friedrichstadt e. V.",
      "position": {
        "lat": 52.5313301,
        "lng": 13.4489603
      },
      "mailaddress": "vorstand-1@sport-friedrichstadt.de",
      "address": "Paul-Heyse-Stra\u00dfe 25 ",
      "webpage": "www.sport-friedrichstadt.de",
      "clubname": "Sportverein Berlin-Friedrichstadt e. V."
    },
    {
      "phonenumber": "8052006",
      "postcode": "14109 Berlin",
      "clublink": "Verein Seglerhaus am Wannsee e. V.",
      "position": {
        "lat": 52.4258614,
        "lng": 13.1615
      },
      "mailaddress": "vsaw@vsaw.de",
      "address": "Am Gro\u00dfen Wannsee 22-26 ",
      "webpage": "www.vsaw.de",
      "clubname": "Verein Seglerhaus am Wannsee e. V."
    },
    {
      "phonenumber": "030/9236166",
      "postcode": "13581 Berlin",
      "clublink": "Hard Lines Berlin e. V.",
      "position": {
        "lat": 52.5256615,
        "lng": 13.198
      },
      "mailaddress": "hard-lines-berlin@gmx.de",
      "address": "Krowelstra\u00dfe 33 ",
      "webpage": "",
      "clubname": "Hard Lines Berlin e. V."
    },
    {
      "phonenumber": "91320220",
      "postcode": "13159 Berlin",
      "clublink": "Blankenfelder Reiterverein e. V.",
      "position": {
        "lat": 52.6204681,
        "lng": 13.3971796
      },
      "mailaddress": "",
      "address": "Hauptstra\u00dfe 55 ",
      "webpage": "",
      "clubname": "Blankenfelder Reiterverein e. V."
    },
    {
      "phonenumber": "3974289056",
      "postcode": "17326 Br\u00fcsow",
      "clublink": "Ring Berliner Einzelpaddler e. V.",
      "position": {
        "lat": 53.3992195,
        "lng": 14.1251802
      },
      "mailaddress": "handtheater@web.de",
      "address": "Karl-Liebknecht-Platz 8 ",
      "webpage": "",
      "clubname": "Ring Berliner Einzelpaddler e. V."
    },
    {
      "phonenumber": "015731853595",
      "postcode": "13439 Berlin",
      "clublink": "TITAN e. V.",
      "position": {
        "lat": 52.5922394,
        "lng": 13.3587599
      },
      "mailaddress": "gwhitner@yahoo.de",
      "address": "Dannenwalder Weg 158 ",
      "webpage": "",
      "clubname": "TITAN e. V."
    },
    {
      "phonenumber": "3653063",
      "postcode": "14089 Berlin",
      "clublink": "Wassersportfreunde Imchen e. V.",
      "position": {
        "lat": 52.4516792,
        "lng": 13.1442204
      },
      "mailaddress": "",
      "address": "Sakrower Kirch weg 6 ",
      "webpage": "",
      "clubname": "Wassersportfreunde Imchen e. V."
    },
    {
      "phonenumber": "494 19 74",
      "postcode": "13357 Berlin",
      "clublink": "BSG TEMA-Fischer-Union",
      "position": {
        "lat": 52.5542412,
        "lng": 13.38344
      },
      "mailaddress": "",
      "address": "Prinzenallee 15 ",
      "webpage": "",
      "clubname": "BSG TEMA-Fischer-Union"
    },
    {
      "phonenumber": "282 34 55",
      "postcode": "10179 Berlin",
      "clublink": "Marameo Berlin e.V.",
      "position": {
        "lat": 52.5121307,
        "lng": 13.4105396
      },
      "mailaddress": "post@marameo.de",
      "address": "Wallstra\u00dfe 32 ",
      "webpage": "www.marameo.de",
      "clubname": "Marameo Berlin e.V."
    },
    {
      "phonenumber": "55952427",
      "postcode": "12059 Berlin",
      "clublink": "Aufschlag von unten e. V.",
      "position": {
        "lat": 52.4811592,
        "lng": 13.4505701
      },
      "mailaddress": "berlin1981@gmx.de",
      "address": "Ulsterstra\u00dfe 3 ",
      "webpage": "",
      "clubname": "Aufschlag von unten e. V."
    },
    {
      "phonenumber": "01723522479",
      "postcode": "12623 Berlin",
      "clublink": "Motorsportverein Mahlsdorf e. V. (DMV)",
      "position": {
        "lat": 52.5165901,
        "lng": 13.6322203
      },
      "mailaddress": "Stenzel.MVM@googlemail.com",
      "address": "Kaulbachstra\u00dfe 8 a ",
      "webpage": "MVMahlsdorf.de",
      "clubname": "Motorsportverein Mahlsdorf e. V. (DMV)"
    },
    {
      "phonenumber": "",
      "postcode": "10969 Berlin",
      "clublink": "Haifischclub trifft Breitensport e.V.",
      "position": {
        "lat": 52.4991798,
        "lng": 13.4104605
      },
      "mailaddress": "",
      "address": "Wassertorstr. 67 ",
      "webpage": "",
      "clubname": "Haifischclub trifft Breitensport e.V."
    },
    {
      "phonenumber": "4361919",
      "postcode": "13505 Berlin",
      "clublink": "Segel-Club Spandau e. V.",
      "position": {
        "lat": 52.5688896,
        "lng": 13.2288704
      },
      "mailaddress": "rafrost@web.de",
      "address": "Friederikestra\u00dfe 25 ",
      "webpage": "www.scspandau.de",
      "clubname": "Segel-Club Spandau e. V."
    },
    {
      "phonenumber": "030 - 306 78 0",
      "postcode": "14059 Berlin",
      "clublink": "Rehasport Berlin e. V.",
      "position": {
        "lat": 52.514389,
        "lng": 13.2843904
      },
      "mailaddress": "info@rehasport-berlin.de",
      "address": "Epiphanienweg 6 ",
      "webpage": "rehasport-berlin.de",
      "clubname": "Rehasport Berlin e. V."
    },
    {
      "phonenumber": "",
      "postcode": "12559 Berlin",
      "clublink": "M\u00fcggelheimer REHA-FIT e. V.",
      "position": {
        "lat": 52.4142113,
        "lng": 13.6577702
      },
      "mailaddress": "",
      "address": "M\u00fcggelheimer Damm 244 ",
      "webpage": "",
      "clubname": "M\u00fcggelheimer REHA-FIT e. V."
    },
    {
      "phonenumber": "01795060290",
      "postcode": "13051 Berlin",
      "clublink": "Sportgemeinschaft Traktor Wei\u00dfensee e. V.",
      "position": {
        "lat": 52.5616684,
        "lng": 13.4895601
      },
      "mailaddress": "traktor-weissensee@gmx.de",
      "address": "Feldtmannstr. 61A ",
      "webpage": "",
      "clubname": "Sportgemeinschaft Traktor Wei\u00dfensee e. V."
    },
    {
      "phonenumber": "675 85 50",
      "postcode": "12527 Berlin",
      "clublink": "Richtershorner Ruderverein e. V.",
      "position": {
        "lat": 52.4007607,
        "lng": 13.6253796
      },
      "mailaddress": "info@riho-verein.de",
      "address": "Sportpromenade 17 ",
      "webpage": "www.riho-verein.de",
      "clubname": "Richtershorner Ruderverein e. V."
    },
    {
      "phonenumber": "",
      "postcode": "12359 Berlin",
      "clublink": "Sporting Mutante",
      "position": {
        "lat": 52.4466782,
        "lng": 13.4549904
      },
      "mailaddress": "",
      "address": "Buschkrugallee 203 ",
      "webpage": "",
      "clubname": "Sporting Mutante"
    },
    {
      "phonenumber": "47487051",
      "postcode": "13127 Berlin",
      "clublink": "Sportgemeinschaft Nordring e. V.",
      "position": {
        "lat": 52.6072197,
        "lng": 13.4199495
      },
      "mailaddress": "sg-nordring@t-online.de",
      "address": "Hugenottenplatz 4 ",
      "webpage": "www.sg-nordring.de",
      "clubname": "Sportgemeinschaft Nordring e. V."
    },
    {
      "phonenumber": "434 40 17",
      "postcode": "13505 Berlin",
      "clublink": "Club Nautique Francais de Tegel e. V.",
      "position": {
        "lat": 52.5924911,
        "lng": 13.26124
      },
      "mailaddress": "CNFT@arcor.de",
      "address": "Schwarzer Weg 31 ",
      "webpage": "www.cnft-berlin.de",
      "clubname": "Club Nautique Francais de Tegel e. V."
    },
    {
      "phonenumber": "017657381515",
      "postcode": "13351 Berlin",
      "clublink": "Schiller2zero e. V.",
      "position": {
        "lat": 52.5509796,
        "lng": 13.34729
      },
      "mailaddress": "2zeroschiller@googlemail.com",
      "address": "Kameruner Stra\u00dfe 6 ",
      "webpage": "",
      "clubname": "Schiller2zero e. V."
    },
    {
      "phonenumber": "017622510596",
      "postcode": "14193 Berlin",
      "clublink": "Baseball- und Softballverein Berlin Wizards e. V.",
      "position": {
        "lat": 52.4819908,
        "lng": 13.28759
      },
      "mailaddress": "vorstand@berlin-wizards.de",
      "address": "Ilmenauer Str. 3 ",
      "webpage": "www.berlin-wizards.de",
      "clubname": "Baseball- und Softballverein Berlin Wizards e. V."
    },
    {
      "phonenumber": "6637070",
      "postcode": "12357 Berlin",
      "clublink": "BSG Dino-Taxi",
      "position": {
        "lat": 52.4298096,
        "lng": 13.4953203
      },
      "mailaddress": "info@dinotaxi.de",
      "address": "Krokusstra\u00dfe 9 ",
      "webpage": "",
      "clubname": "BSG Dino-Taxi"
    },
    {
      "phonenumber": "0159-04126785, 0177-7457093",
      "postcode": "12679 Berlin",
      "clublink": "Fit und Fun Marzahn e.V.",
      "position": {
        "lat": 52.5470009,
        "lng": 13.5569496
      },
      "mailaddress": "seid@vsj-berlin.de",
      "address": "Marzahner Promenade 55 ",
      "webpage": "",
      "clubname": "Fit und Fun Marzahn e.V."
    },
    {
      "phonenumber": "8122592",
      "postcode": "14169 Berlin",
      "clublink": "Freizeitsportverein Dahlemer Delphine e. V.",
      "position": {
        "lat": 52.4410019,
        "lng": 13.2761002
      },
      "mailaddress": "dr.janmartin@freenet.de",
      "address": "Schlettstadter Stra\u00dfe 101 ",
      "webpage": "",
      "clubname": "Freizeitsportverein Dahlemer Delphine e. V."
    },
    {
      "phonenumber": "30112717",
      "postcode": "14055 Berlin",
      "clublink": "Versehrten-Wassersport-Gemeinschaft",
      "position": {
        "lat": 52.5047417,
        "lng": 13.2109604
      },
      "mailaddress": "kontakt@vwg-berlin.de",
      "address": "Havelchaussee 115 ",
      "webpage": "http://www.vwg-berlin.de",
      "clubname": "Versehrten-Wassersport-Gemeinschaft"
    },
    {
      "phonenumber": "745 50 34",
      "postcode": "12307 Berlin",
      "clublink": "L\u00e4ndlicher Reiterverein Lichtenrade e. V.",
      "position": {
        "lat": 52.3965302,
        "lng": 13.3810797
      },
      "mailaddress": "lrvlichtenrade@aol.com",
      "address": "Schichauweg 49 ",
      "webpage": "",
      "clubname": "L\u00e4ndlicher Reiterverein Lichtenrade e. V."
    },
    {
      "phonenumber": "01791123966",
      "postcode": "13357 Berlin",
      "clublink": "Ideal Sch\u00fctzenverein e. V.",
      "position": {
        "lat": 52.555481,
        "lng": 13.3748503
      },
      "mailaddress": "",
      "address": "Schwedenstra\u00dfe 14 Hinterhof ",
      "webpage": "",
      "clubname": "Ideal Sch\u00fctzenverein e. V."
    },
    {
      "phonenumber": "4731213",
      "postcode": "13086 Berlin",
      "clublink": "Rock 'n' Roll-Club Spreeathen Berlin e. V.",
      "position": {
        "lat": 52.5560913,
        "lng": 13.4295502
      },
      "mailaddress": "info@rrc-spreeathen.de",
      "address": "Prenzlauer Promenade 23 ",
      "webpage": "www.rrc-spreeathen.de",
      "clubname": "Rock 'n' Roll-Club Spreeathen Berlin e. V."
    },
    {
      "phonenumber": "0173-627 11 61",
      "postcode": "12161 Berlin",
      "clublink": "Tai Chi Chuan u. Qi Gong Forum Berlin e.V.",
      "position": {
        "lat": 52.4703903,
        "lng": 13.3242903
      },
      "mailaddress": "henrike.lindemann@gmx.de",
      "address": "Stubenrauchstr. 63 ",
      "webpage": "",
      "clubname": "Tai Chi Chuan u. Qi Gong Forum Berlin e.V."
    },
    {
      "phonenumber": "34338015",
      "postcode": "13127 Berlin",
      "clublink": "Sportverein Buchholz e. V.",
      "position": {
        "lat": 52.6030617,
        "lng": 13.4332504
      },
      "mailaddress": "info@sv-buchholz.de",
      "address": "Chamissostra\u00dfe 9-11 ",
      "webpage": "www.sv-buchholz.de",
      "clubname": "Sportverein Buchholz e. V."
    },
    {
      "phonenumber": "21254444",
      "postcode": "10719 Berlin",
      "clublink": "Investitionsbank Berlin Betriebssportgemeinschaft e. V.",
      "position": {
        "lat": 52.4955902,
        "lng": 13.3314896
      },
      "mailaddress": "michael.bomke@ibb.de",
      "address": "Bundesallee 210 ",
      "webpage": "",
      "clubname": "Investitionsbank Berlin Betriebssportgemeinschaft e. V."
    },
    {
      "phonenumber": "90171-685",
      "postcode": "10785 Berlin",
      "clublink": "Freizeitsportgemeinschaft Arbeitsgericht Berlin e.V.",
      "position": {
        "lat": 52.5032692,
        "lng": 13.3595695
      },
      "mailaddress": "augustin@larbg.berlin.de",
      "address": "Magdeburger Platz 1 ",
      "webpage": "",
      "clubname": "Freizeitsportgemeinschaft Arbeitsgericht Berlin e.V."
    },
    {
      "phonenumber": "702 434 35",
      "postcode": "12047 Berlin",
      "clublink": "Sport Club Berliner Amateure 1920 e.V.",
      "position": {
        "lat": 52.4903488,
        "lng": 13.4260998
      },
      "mailaddress": "berlineramateure@aol.com",
      "address": "Hobrechtstr. 62 ",
      "webpage": "www.berlineramateure.de",
      "clubname": "Sport Club Berliner Amateure 1920 e.V."
    },
    {
      "phonenumber": "",
      "postcode": "12013 Berlin",
      "clublink": "Limalama Deutschland e.V.",
      "position": {
        "lat": 52.4657211,
        "lng": 13.3781004
      },
      "mailaddress": "sergio.rih@gmail.com",
      "address": "Alt-Tempelhof 61 ",
      "webpage": "",
      "clubname": "Limalama Deutschland e.V."
    },
    {
      "phonenumber": "030 / 7120 1566",
      "postcode": "12207 Berlin",
      "clublink": "Sportverein Adler Berlin 1950 e.V.",
      "position": {
        "lat": 52.4139786,
        "lng": 13.3159304
      },
      "mailaddress": "info@sv-adler-berlin.de",
      "address": "Fahrenheitstr. 10 ",
      "webpage": "www.sv-adler-berlin.de",
      "clubname": "Sportverein Adler Berlin 1950 e.V."
    },
    {
      "phonenumber": "35504490",
      "postcode": "13587 Berlin",
      "clublink": "Angler-Verein Charlottenburg e. V.",
      "position": {
        "lat": 52.5587997,
        "lng": 13.2146702
      },
      "mailaddress": "",
      "address": "Am Maselakepark 50 ",
      "webpage": "",
      "clubname": "Angler-Verein Charlottenburg e. V."
    },
    {
      "phonenumber": "",
      "postcode": "12355 Berlin",
      "clublink": "BSG Blau-Wei\u00df Mariendorfer Weg",
      "position": {
        "lat": 52.4112396,
        "lng": 13.4786501
      },
      "mailaddress": "",
      "address": "Ascherslebener Weg 42 ",
      "webpage": "",
      "clubname": "BSG Blau-Wei\u00df Mariendorfer Weg"
    },
    {
      "phonenumber": "621 89 26",
      "postcode": "12059 Berlin",
      "clublink": "Rixdorfer SV Berlin e. V.",
      "position": {
        "lat": 52.4765396,
        "lng": 13.4512596
      },
      "mailaddress": "rixdorfersv@freenet.de",
      "address": "Sonnenallee 181 ",
      "webpage": "rixdorfersv.de",
      "clubname": "Rixdorfer SV Berlin e. V."
    },
    {
      "phonenumber": "20214157",
      "postcode": "10119 Berlin",
      "clublink": "FC Gl\u00fcck Auf Utopia Berlin 2010 e. V.",
      "position": {
        "lat": 52.5281181,
        "lng": 13.4132004
      },
      "mailaddress": "fcglueckaufberlin@gmail.com",
      "address": "Torstra\u00dfe 23 ",
      "webpage": "",
      "clubname": "FC Gl\u00fcck Auf Utopia Berlin 2010 e. V."
    },
    {
      "phonenumber": "017663217435",
      "postcode": "13055 Berlin",
      "clublink": "Kimura Shukokai Karate Berlin Wei\u00dfensee",
      "position": {
        "lat": 52.5693512,
        "lng": 13.51717
      },
      "mailaddress": "",
      "address": "Grevesm\u00fchlener Stra\u00dfe 24 ",
      "webpage": "www.kimura-karate.de",
      "clubname": "Kimura Shukokai Karate Berlin Wei\u00dfensee"
    },
    {
      "phonenumber": "4317742",
      "postcode": "13503 Berlin",
      "clublink": "Sportfischer-Verein Sandhausen e. V.",
      "position": {
        "lat": 52.6150017,
        "lng": 13.23034
      },
      "mailaddress": "",
      "address": "Osterwicker Steig 11 a ",
      "webpage": "",
      "clubname": "Sportfischer-Verein Sandhausen e. V."
    },
    {
      "phonenumber": "80922985",
      "postcode": "13587 Berlin",
      "clublink": "Sportverein Spandau Aalemann e.V.",
      "position": {
        "lat": 52.5744781,
        "lng": 13.2200003
      },
      "mailaddress": "vorstand@sv-aalemann.de",
      "address": "Rustweg 28 B ",
      "webpage": "www.sv-aalemann.de",
      "clubname": "Sportverein Spandau Aalemann e.V."
    },
    {
      "phonenumber": "2917588",
      "postcode": "10245 Berlin",
      "clublink": "Sportgemeinschaft NARVA Berlin e. V.",
      "position": {
        "lat": 52.5024986,
        "lng": 13.45714
      },
      "mailaddress": "handball@SG-NARVA.de",
      "address": "Modersohnstra\u00dfe 55 ",
      "webpage": "www.SG-NARVA.de",
      "clubname": "Sportgemeinschaft NARVA Berlin e. V."
    },
    {
      "phonenumber": "206 42 902",
      "postcode": "16356 Ahrensfelde",
      "clublink": "Wanderverein Fontane '91 Berlin e. V.",
      "position": {
        "lat": 52.5828514,
        "lng": 13.5636396
      },
      "mailaddress": "info@fontane91.de",
      "address": "Fontanestra\u00dfe 14 ",
      "webpage": "https://fontane91.de",
      "clubname": "Wanderverein Fontane '91 Berlin e. V."
    },
    {
      "phonenumber": "030/9018 42432",
      "postcode": "10557 Berlin",
      "clublink": "Kanuclub Haselhorst e. V.",
      "position": {
        "lat": 52.5214195,
        "lng": 13.3430901
      },
      "mailaddress": "vorstand@kanu-club-haselhorst.sporton.de",
      "address": "Flensburger Str. 28 ",
      "webpage": "gareimann@googlemail.com",
      "clubname": "Kanuclub Haselhorst e. V."
    },
    {
      "phonenumber": "6756487",
      "postcode": "10365 Berlin",
      "clublink": "Wassersportclub Rauchfangswerder e. V.",
      "position": {
        "lat": 52.5125809,
        "lng": 13.4945498
      },
      "mailaddress": "wsc@wassersportclub-rauchfangswerder.de",
      "address": "Hubertusstra\u00dfe 3 ",
      "webpage": "www.wassersportclub-rauchfangswerder.de",
      "clubname": "Wassersportclub Rauchfangswerder e. V."
    },
    {
      "phonenumber": "37489121",
      "postcode": "13589 Berlin",
      "clublink": "Eifelverein Berlin e. V.",
      "position": {
        "lat": 52.5532913,
        "lng": 13.1488304
      },
      "mailaddress": "hschmidt@eifelverein-berlin.de",
      "address": "Flurende 57 ",
      "webpage": "www.eifelverein-berlin.de",
      "clubname": "Eifelverein Berlin e. V."
    },
    {
      "phonenumber": "017696790063",
      "postcode": "13629 Berlin",
      "clublink": "FC POLONIA BERLIN e. V.",
      "position": {
        "lat": 52.5354004,
        "lng": 13.2724304
      },
      "mailaddress": "vorstand@fc-polonia.com",
      "address": "Hefnersteig 3 ",
      "webpage": "",
      "clubname": "FC POLONIA BERLIN e. V."
    },
    {
      "phonenumber": "01635488756",
      "postcode": "12587 Berlin",
      "clublink": "Angelsportverein am Langen See e. V.",
      "position": {
        "lat": 52.4515419,
        "lng": 13.61724
      },
      "mailaddress": "hans-juergen.schaechter@cristalux.de",
      "address": "A\u00dfmannstra\u00dfe 6 c ",
      "webpage": "www.asv-am-langen-see.de",
      "clubname": "Angelsportverein am Langen See e. V."
    },
    {
      "phonenumber": "01723904230",
      "postcode": "14532 Stahnsdorf",
      "clublink": "Segel-Club Ahoi e. V.",
      "position": {
        "lat": 52.3758507,
        "lng": 13.2177601
      },
      "mailaddress": "tpatzelt@t-online.de",
      "address": "Luisenstra\u00dfe 60 ",
      "webpage": "www.scahoi-berlin.de",
      "clubname": "Segel-Club Ahoi e. V."
    },
    {
      "phonenumber": "674 34 58",
      "postcode": "12527 Berlin",
      "clublink": "Seesportclub Berlin-Gr\u00fcnau e. V.",
      "position": {
        "lat": 52.3957214,
        "lng": 13.6357603
      },
      "mailaddress": "sscbg@berlin.de",
      "address": "Rohrwallallee 11 ",
      "webpage": "www.sscbg.de",
      "clubname": "Seesportclub Berlin-Gr\u00fcnau e. V."
    },
    {
      "phonenumber": "01723958484",
      "postcode": "13053 Berlin",
      "clublink": "Lebens-Wert-Berlin e. V.",
      "position": {
        "lat": 52.5525208,
        "lng": 13.5004902
      },
      "mailaddress": "info@lebens-wert.berlin",
      "address": "Gembitzer Stra\u00dfe 19 ",
      "webpage": "www.lebens-wert.berlin",
      "clubname": "Lebens-Wert-Berlin e. V."
    },
    {
      "phonenumber": "030/ 80 48 27 00; 03",
      "postcode": "14129 Berlin",
      "clublink": "BSG Wasser 75 e.V.",
      "position": {
        "lat": 52.4318199,
        "lng": 13.1865597
      },
      "mailaddress": "geschaeftsstelle@bsg-wasser75.de",
      "address": "Kronprinzessinnenweg 140 ",
      "webpage": "www.bsg-wasser75.de",
      "clubname": "BSG Wasser 75 e.V."
    },
    {
      "phonenumber": "6758530",
      "postcode": "12527 Berlin",
      "clublink": "Wassersport-Verein 1921 e.V.",
      "position": {
        "lat": 52.3883018,
        "lng": 13.6401796
      },
      "mailaddress": "wm@wsv1921.de",
      "address": "Rohrwallallee 87-89 ",
      "webpage": "www.wsv1921.de",
      "clubname": "Wassersport-Verein 1921 e.V."
    },
    {
      "phonenumber": "030 771 90 881",
      "postcode": "12167 Berlin",
      "clublink": "Steglitzer Tischtennis Klub Berlin",
      "position": {
        "lat": 52.44524,
        "lng": 13.3253202
      },
      "mailaddress": "christian@sttkberlin.de",
      "address": "Dalandweg 7 ",
      "webpage": "http://www.sttkberlin.de",
      "clubname": "Steglitzer Tischtennis Klub Berlin"
    },
    {
      "phonenumber": "70509884",
      "postcode": "12157 Berlin",
      "clublink": "Fu\u00dfball Club Internationale Berlin 1980 e. V.",
      "position": {
        "lat": 52.4717712,
        "lng": 13.3553839
      },
      "mailaddress": "inter@berlin.de",
      "address": "Vorarlberger Damm 38 ",
      "webpage": "www.fc-internationale-berlin.de",
      "clubname": "Fu\u00dfball Club Internationale Berlin 1980 e. V."
    },
    {
      "phonenumber": "22324793",
      "postcode": "12557 Berlin",
      "clublink": "Ruderclub NARVA-Oberspree e. V.",
      "position": {
        "lat": 52.4446793,
        "lng": 13.5634604
      },
      "mailaddress": "narvalutz@web.de",
      "address": "Westendstra\u00dfe 15 ",
      "webpage": "sgnarva.ag.vu",
      "clubname": "Ruderclub NARVA-Oberspree e. V."
    },
    {
      "phonenumber": "01721075090",
      "postcode": "12487 Berlin",
      "clublink": "Verein f\u00fcr Asiatische Kampfk\u00fcnste e. V.",
      "position": {
        "lat": 52.4460106,
        "lng": 13.5050001
      },
      "mailaddress": "",
      "address": "Sterndamm 82 ",
      "webpage": "",
      "clubname": "Verein f\u00fcr Asiatische Kampfk\u00fcnste e. V."
    },
    {
      "phonenumber": "813 72 29",
      "postcode": "14163 Berlin",
      "clublink": "Zehlendorfer Turn- und Sportverein von 1888 e. V.",
      "position": {
        "lat": 52.4420509,
        "lng": 13.2513199
      },
      "mailaddress": "info@zehlendorf88.de",
      "address": "Sven-Hedin-Stra\u00dfe 85 ",
      "webpage": "www.zehlendorf88.de",
      "clubname": "Zehlendorfer Turn- und Sportverein von 1888 e. V."
    },
    {
      "phonenumber": "27909746",
      "postcode": "10179 Berlin",
      "clublink": "Sektion Brandenburger Tor des Deutschen Alpenvereins",
      "position": {
        "lat": 52.5125198,
        "lng": 13.4116402
      },
      "mailaddress": "LutzPrill@web.de",
      "address": "Inselstra\u00dfe 8 a ",
      "webpage": "www.horzelbuben.de",
      "clubname": "Sektion Brandenburger Tor des Deutschen Alpenvereins"
    },
    {
      "phonenumber": "01637176787",
      "postcode": "13599 Berlin",
      "clublink": "Biber Sport Club Spandau",
      "position": {
        "lat": 52.547554,
        "lng": 13.2336626
      },
      "mailaddress": "Vorstand@bsc-spandau.de",
      "address": "L\u00fcnette 12 ",
      "webpage": "http://www.bsc-spandau.de",
      "clubname": "Biber Sport Club Spandau"
    },
    {
      "phonenumber": "",
      "postcode": "12623 Berlin",
      "clublink": "Ballspielverein (BSV) Schwarz-Gelb 94 e. V.",
      "position": {
        "lat": 52.5179634,
        "lng": 13.6322651
      },
      "mailaddress": "patrice.streuber@gmail.com",
      "address": "Landsberger Stra\u00dfe 52 ",
      "webpage": "",
      "clubname": "Ballspielverein (BSV) Schwarz-Gelb 94 e. V."
    },
    {
      "phonenumber": "683202220",
      "postcode": "10587 Berlin",
      "clublink": "EHC Berlin Blues e. V.",
      "position": {
        "lat": 52.5211983,
        "lng": 13.3283901
      },
      "mailaddress": "europe@tchernovandio.com",
      "address": "Franklinstra\u00dfe 13 a ",
      "webpage": "www.berlinerblues.com",
      "clubname": "EHC Berlin Blues e. V. "
    },
    {
      "phonenumber": "0171-324 96 86",
      "postcode": "10409 Berlin",
      "clublink": "Jugger e. V.",
      "position": {
        "lat": 52.5432281,
        "lng": 13.4360504
      },
      "mailaddress": "vorstand@jugger-berlin.de",
      "address": "Rietzestra\u00dfe 6 ",
      "webpage": "www.jugger-berlin.de",
      "clubname": "Jugger e. V."
    },
    {
      "phonenumber": "7442967",
      "postcode": "10963 Berlin",
      "clublink": "BSG Allgemeine Ortskrankenkasse Nordost e.V.",
      "position": {
        "lat": 52.4988708,
        "lng": 13.3895102
      },
      "mailaddress": "wolfganghorstkoch@googlemail.com",
      "address": "Wilhelmstra\u00dfe 1 ",
      "webpage": "",
      "clubname": "BSG Allgemeine Ortskrankenkasse Nordost e.V."
    },
    {
      "phonenumber": "86303440",
      "postcode": "14109 Berlin",
      "clublink": "Kanu-Verein Falke e. V.",
      "position": {
        "lat": 52.4197807,
        "lng": 13.1735802
      },
      "mailaddress": "aw@kvfalke.de",
      "address": "K\u00f6nigstra\u00dfe 69 ",
      "webpage": "www.kanu-verein-falke.de",
      "clubname": "Kanu-Verein Falke e. V."
    },
    {
      "phonenumber": "030/4332284",
      "postcode": "12307 Berlin",
      "clublink": "Verein f\u00fcr Minigolf Berlin e. V.",
      "position": {
        "lat": 52.5987816,
        "lng": 13.3046103
      },
      "mailaddress": "vfm-berlin@gmx.de",
      "address": "Egidystr. 2 ",
      "webpage": "www.Vfm-Berlin.de",
      "clubname": "Verein f\u00fcr Minigolf Berlin e. V."
    },
    {
      "phonenumber": "030-79702768",
      "postcode": "10247 Berlin",
      "clublink": "Tolf Berlin e.V.",
      "position": {
        "lat": 52.5187798,
        "lng": 13.4611702
      },
      "mailaddress": "info@tolf.de",
      "address": "B\u00e4nschstr. 22 ",
      "webpage": "www.tolf.de",
      "clubname": "Tolf Berlin e.V."
    },
    {
      "phonenumber": "4016879",
      "postcode": "13465 Berlin",
      "clublink": "Tennis-Vereinigung Frohnau e.V.",
      "position": {
        "lat": 52.6425705,
        "lng": 13.2889299
      },
      "mailaddress": "club@tv-frohnau.de",
      "address": "Sch\u00f6nflie\u00dfer Stra\u00dfe. 11 A ",
      "webpage": "www.tv-frohnau.de",
      "clubname": "Tennis-Vereinigung Frohnau e.V."
    },
    {
      "phonenumber": "34071782",
      "postcode": "10117 Berlin",
      "clublink": "SV Deutsche Bank Deutschland e. V.",
      "position": {
        "lat": 52.51688,
        "lng": 13.3916597
      },
      "mailaddress": "andre.hamann@db.com",
      "address": "Unter den Linden 13-15 ",
      "webpage": "www.db-sport.de",
      "clubname": "SV Deutsche Bank Deutschland e. V."
    },
    {
      "phonenumber": "0183054835",
      "postcode": "13353 Berlin",
      "clublink": "Leistungssportclub Berlin e. V.",
      "position": {
        "lat": 52.5494308,
        "lng": 13.3492298
      },
      "mailaddress": "adrian.saupe@web.de",
      "address": "Seestra\u00dfe 101 ",
      "webpage": "",
      "clubname": "Leistungssportclub Berlin e. V."
    },
    {
      "phonenumber": "92373497",
      "postcode": "13053 Berlin",
      "clublink": "Sportgemeinschaft Blau-Weiss Hohensch\u00f6nhausen e. V.",
      "position": {
        "lat": 52.5620003,
        "lng": 13.5134115
      },
      "mailaddress": "kontakt@bwh-berlin.de",
      "address": "Am Breiten Luch 21 ",
      "webpage": "www.bwh-berlin.de",
      "clubname": "Sportgemeinschaft Blau-Weiss Hohensch\u00f6nhausen e. V."
    },
    {
      "phonenumber": "85746262",
      "postcode": "12169 Berlin",
      "clublink": "1. Softball Club Berlin e.V.",
      "position": {
        "lat": 52.4594002,
        "lng": 13.3421698
      },
      "mailaddress": "play@hangarounds.de",
      "address": "Altmarkstr. 26 ",
      "webpage": "",
      "clubname": "1. Softball Club Berlin e.V."
    },
    {
      "phonenumber": "015779447608",
      "postcode": "13591 Berlin",
      "clublink": "Turn- und Sportverein Staaken 06",
      "position": {
        "lat": 52.5377998,
        "lng": 13.15448
      },
      "mailaddress": "geschaeftsstelle@tsvstaaken.de",
      "address": "Stra\u00dfe 331 Nr. 5 ",
      "webpage": "www.tsvstaaken.de",
      "clubname": "Turn- und Sportverein Staaken 06"
    },
    {
      "phonenumber": "01785211122",
      "postcode": "10555 Berlin",
      "clublink": "DJK Blau-Wei\u00df",
      "position": {
        "lat": 52.5254211,
        "lng": 13.3330603
      },
      "mailaddress": "mariaagelopoulou@aol.com",
      "address": "Zwinglistra\u00dfe 36 ",
      "webpage": "",
      "clubname": "DJK Blau-Wei\u00df"
    },
    {
      "phonenumber": "01723054186",
      "postcode": "14109 Berlin",
      "clublink": "Wannseer Kanu-Club e. V.",
      "position": {
        "lat": 52.4145203,
        "lng": 13.1581898
      },
      "mailaddress": "joerg.heibeck@wkc-berlin.de",
      "address": "Bismarckstr. 70 - 72 ",
      "webpage": "www.wkc-berlin.de",
      "clubname": "Wannseer Kanu-Club e. V."
    },
    {
      "phonenumber": "64904697",
      "postcode": "12439 Berlin",
      "clublink": "Sport-Spiel-Verein K\u00f6penick-Oberspree e. V.",
      "position": {
        "lat": 52.4548912,
        "lng": 13.5454798
      },
      "mailaddress": "verein.koob@googlemail.com",
      "address": "Bruno-B\u00fcrgel-Weg 99 ",
      "webpage": "ssvkob.de",
      "clubname": "Sport-Spiel-Verein K\u00f6penick-Oberspree e. V."
    },
    {
      "phonenumber": "8134055",
      "postcode": "14195 Berlin",
      "clublink": "Sch\u00fctzengilde Andreas Hofer Berlin e. V.",
      "position": {
        "lat": 52.4589119,
        "lng": 13.2735796
      },
      "mailaddress": "",
      "address": "Clayallee 121 ",
      "webpage": "",
      "clubname": "Sch\u00fctzengilde Andreas Hofer Berlin e. V."
    },
    {
      "phonenumber": "01711135635",
      "postcode": "13189 Berlin",
      "clublink": "Segelgemeinschaft Rauchfangswerder e. V.",
      "position": {
        "lat": 52.56567,
        "lng": 13.4141502
      },
      "mailaddress": "siegfried_krueger@gmx.de",
      "address": "Hiddenseestra\u00dfe 11 ",
      "webpage": "",
      "clubname": "Segelgemeinschaft Rauchfangswerder e. V."
    },
    {
      "phonenumber": "030 - 813 20 81",
      "postcode": "14169 Berlin",
      "clublink": "Reiterverein Onkel-Toms-H\u00fctte e. V.",
      "position": {
        "lat": 52.4542999,
        "lng": 13.2493
      },
      "mailaddress": "info@oth-reiten.de",
      "address": "Onkel-Tom-Stra\u00dfe 172 ",
      "webpage": "www.oth-reiten.de",
      "clubname": "Reiterverein Onkel-Toms-H\u00fctte e. V."
    },
    {
      "phonenumber": "0176-32 93 9003",
      "postcode": "10965 Berlin",
      "clublink": "Kendoverband Berlin e.V.",
      "position": {
        "lat": 52.4879494,
        "lng": 13.37463
      },
      "mailaddress": "b.baade@kendoverband-berlin.de",
      "address": "Monumentenstr. 28 ",
      "webpage": "",
      "clubname": "Kendoverband Berlin e.V."
    },
    {
      "phonenumber": "93937580",
      "postcode": "12557 Berlin",
      "clublink": "Verein f\u00fcr Gesundheitssport e. V.",
      "position": {
        "lat": 52.4445915,
        "lng": 13.5683203
      },
      "mailaddress": "info@vgs-land-berlin.de",
      "address": "Oberspreestra\u00dfe 186 ",
      "webpage": "www.vgs-land-berlin.de",
      "clubname": "Verein f\u00fcr Gesundheitssport e. V."
    },
    {
      "phonenumber": "030 / 721 11 75",
      "postcode": "12279 Berlin",
      "clublink": "Badminton-Club Tempelhof e. V.",
      "position": {
        "lat": 52.4131699,
        "lng": 13.3590603
      },
      "mailaddress": "d.babenschneider@bctempelhof.de",
      "address": "Hildburghauser Str. 10a ",
      "webpage": "www.bctempelhof.de",
      "clubname": "Badminton-Club Tempelhof e. V."
    },
    {
      "phonenumber": "030/21479179",
      "postcode": "14199 Berlin",
      "clublink": "Wassersportgemeinschaft am Gro\u00dfen Fenster e. V.",
      "position": {
        "lat": 52.4732285,
        "lng": 13.2978001
      },
      "mailaddress": "info@wag-berlin.de",
      "address": "Breite Str. 49 ",
      "webpage": "www.wag-berlin.de",
      "clubname": "Wassersportgemeinschaft am Gro\u00dfen Fenster e. V."
    },
    {
      "phonenumber": "0049 30 695 07 688",
      "postcode": "10999 Berlin",
      "clublink": "Shin Gi Tai Kai Karate Do e. V.",
      "position": {
        "lat": 52.5004616,
        "lng": 13.4218302
      },
      "mailaddress": "shitoryu@gmx.de",
      "address": "Oranienstra\u00dfe 188 ",
      "webpage": "www.shingitai.de",
      "clubname": "Shin Gi Tai Kai Karate Do e. V."
    },
    {
      "phonenumber": "030/803 71 70",
      "postcode": "14129 Berlin",
      "clublink": "Nikolassee Tennis-Club Die K\u00e4nguruhs e. V.",
      "position": {
        "lat": 52.4332619,
        "lng": 13.1946096
      },
      "mailaddress": "info@die-kaenguruhs.org",
      "address": "Spanische Allee 170 ",
      "webpage": "www.die-kaenguruhs.org",
      "clubname": "Nikolassee Tennis-Club Die K\u00e4nguruhs e. V."
    },
    {
      "phonenumber": "7423210",
      "postcode": "12349 Berlin",
      "clublink": "Betriebssportgemeinschaft Procter & Gamble Manufacturing Berlin GmbH e. V.",
      "position": {
        "lat": 52.414959,
        "lng": 13.4183197
      },
      "mailaddress": "hlattwesen@t-online.de",
      "address": "B\u00fchler Weg 51 ",
      "webpage": "",
      "clubname": "Betriebssportgemeinschaft Procter & Gamble Manufacturing Berlin GmbH e. V."
    },
    {
      "phonenumber": "01624830623",
      "postcode": "15366 Hoppegarten",
      "clublink": "Turn- und Sportverein Berlin -Wilmersdorf",
      "position": {
        "lat": 52.4847488,
        "lng": 13.6676197
      },
      "mailaddress": "annett.arnold@berlin.de",
      "address": "Hauptstra\u00dfe 16 a ",
      "webpage": "www.tus-wilmersdorf.de",
      "clubname": "Turn- und Sportverein Berlin -Wilmersdorf"
    },
    {
      "phonenumber": "6758254",
      "postcode": "12527 Berlin",
      "clublink": "Segel Club Seddin e. V.",
      "position": {
        "lat": 52.3778305,
        "lng": 13.6504602
      },
      "mailaddress": "kontaktscs@sc-seddin.de",
      "address": "Am Seddinsee 13 ",
      "webpage": "www.sc-seddin.de",
      "clubname": "Segel Club Seddin e. V."
    },
    {
      "phonenumber": "6774734",
      "postcode": "12524 Berlin",
      "clublink": "Berliner Tennis-Club Wista e. V.",
      "position": {
        "lat": 52.4224892,
        "lng": 13.5454197
      },
      "mailaddress": "info@btc-wista.de",
      "address": "Verl\u00e4ngerte Werderstra\u00dfe 5 ",
      "webpage": "www.btc-wista.de",
      "clubname": "Berliner Tennis-Club Wista e. V."
    },
    {
      "phonenumber": "334 76 30",
      "postcode": "13599 Berlin",
      "clublink": "Berliner Ruderclub Ph\u00f6nix e. V.",
      "position": {
        "lat": 52.5525513,
        "lng": 13.23699
      },
      "mailaddress": "br-phoenix1913@web.de",
      "address": "Bootshausweg 6 ",
      "webpage": "www.br-phoenix.de",
      "clubname": "Berliner Ruderclub Ph\u00f6nix e. V."
    },
    {
      "phonenumber": "4152626",
      "postcode": "13439 Berlin",
      "clublink": "M\u00e4rkischer Tanzsportclub Berlin e. V.",
      "position": {
        "lat": 52.5974312,
        "lng": 13.3633204
      },
      "mailaddress": "ts.steirl@t-online.de",
      "address": "Wilhelmsruher Damm 96 ",
      "webpage": "www.tanzschule-steirl.de",
      "clubname": "M\u00e4rkischer Tanzsportclub Berlin e. V."
    },
    {
      "phonenumber": "",
      "postcode": "10961 Berlin",
      "clublink": "BSV Physio Harmony Reha-Sportverein e. V.",
      "position": {
        "lat": 52.4909096,
        "lng": 13.3944998
      },
      "mailaddress": "",
      "address": "Zossener Stra\u00dfe 36 ",
      "webpage": "",
      "clubname": "BSV Physio Harmony Reha-Sportverein e. V."
    },
    {
      "phonenumber": "6611060",
      "postcode": "12355 Berlin",
      "clublink": "Berliner Tennisclub Gropiusstadt e. V.",
      "position": {
        "lat": 52.4194107,
        "lng": 13.4703703
      },
      "mailaddress": "kontakt@btc-gropiusstadt.de",
      "address": "Matth\u00e4usweg 8 ",
      "webpage": "btc-gropiusstadt.de",
      "clubname": "Berliner Tennisclub Gropiusstadt e. V."
    },
    {
      "phonenumber": "2613468",
      "postcode": "10785 Berlin",
      "clublink": "BSG Max-B\u00fcrger-Krankenhaus",
      "position": {
        "lat": 52.5031013,
        "lng": 13.3604603
      },
      "mailaddress": "klausgruhn@web.de",
      "address": "Magdeburger Platz 4-5 ",
      "webpage": "",
      "clubname": "BSG Max-B\u00fcrger-Krankenhaus"
    },
    {
      "phonenumber": "741 84 43",
      "postcode": "12107 Berlin",
      "clublink": "Kanu-Gemeinschaft Tegel e. V.",
      "position": {
        "lat": 52.4201317,
        "lng": 13.3912497
      },
      "mailaddress": "",
      "address": "S\u00e4ntisstra\u00dfe 43 ",
      "webpage": "",
      "clubname": "Kanu-Gemeinschaft Tegel e. V."
    },
    {
      "phonenumber": "4463831",
      "postcode": "10439 Berlin",
      "clublink": "Sportverein Startklar e.V.",
      "position": {
        "lat": 52.5537491,
        "lng": 13.4186697
      },
      "mailaddress": "",
      "address": "Trelleborger Stra\u00dfe 2 ",
      "webpage": "",
      "clubname": "Sportverein Startklar e.V."
    },
    {
      "phonenumber": "9121480",
      "postcode": "13158 Berlin",
      "clublink": "Fu\u00dfball-Club Concordia Wilhelmsruh 1895 e. V.",
      "position": {
        "lat": 52.6013298,
        "lng": 13.4023705
      },
      "mailaddress": "vorstand@cw1895.de",
      "address": "Dietzgenstra\u00dfe 187-189 ",
      "webpage": "www.fc-concordia-wilhelmsruh1895.de",
      "clubname": "Fu\u00dfball-Club Concordia Wilhelmsruh 1895 e. V."
    },
    {
      "phonenumber": "432 73 92",
      "postcode": "13507 Berlin",
      "clublink": "Segel-Club Odin e. V.",
      "position": {
        "lat": 52.5731506,
        "lng": 13.2589703
      },
      "mailaddress": "",
      "address": "Bernauer Stra\u00dfe 152 c ",
      "webpage": "http://www.scodin.de/",
      "clubname": "Segel-Club Odin e. V."
    },
    {
      "phonenumber": "",
      "postcode": "12526 Berlin",
      "clublink": "HSV Teamsport Berlin e. V.",
      "position": {
        "lat": 52.400753,
        "lng": 13.5840626
      },
      "mailaddress": "1.vors@teamsport-berlin.de",
      "address": "Neptunstra\u00dfe 1 ",
      "webpage": "www.teamsport-berlin.de",
      "clubname": "HSV Teamsport Berlin e. V."
    },
    {
      "phonenumber": "0177/ 2054180",
      "postcode": "15320 Neuhardenberg",
      "clublink": "FMC Neuhardenberg e. V.",
      "position": {
        "lat": 52.5919304,
        "lng": 14.23633
      },
      "mailaddress": "holger.au@t-online.de",
      "address": "Friedrich-Engels-Stra\u00dfe 15 a ",
      "webpage": "",
      "clubname": "FMC Neuhardenberg e. V."
    },
    {
      "phonenumber": "2839910",
      "postcode": "10177 Berlin",
      "clublink": "FC Akzent Berlin",
      "position": {
        "lat": 52.5079689,
        "lng": 13.3928299
      },
      "mailaddress": "stefan.schwass@akzent-personal.de",
      "address": "Zimmerstra\u00dfe 69 ",
      "webpage": "",
      "clubname": "FC Akzent Berlin"
    },
    {
      "phonenumber": "44058731",
      "postcode": "10437 Berlin",
      "clublink": "Sportverein Empor Berlin e. V.",
      "position": {
        "lat": 52.5443802,
        "lng": 13.4107199
      },
      "mailaddress": "verein@empor-berlin.de",
      "address": "Cantianstra\u00dfe 24 ",
      "webpage": "www.sv-empor-berlin.de",
      "clubname": "Sportverein Empor Berlin e. V."
    },
    {
      "phonenumber": "695 32 323",
      "postcode": "10965 Berlin",
      "clublink": "BSG WSA Berlin (Wasser- und Schifffahrtsamt) e. V.",
      "position": {
        "lat": 52.4855614,
        "lng": 13.3865604
      },
      "mailaddress": "",
      "address": "Mehringdamm 129 ",
      "webpage": "",
      "clubname": "BSG WSA Berlin (Wasser- und Schifffahrtsamt) e. V."
    },
    {
      "phonenumber": "362 81 002",
      "postcode": "13589 Berlin",
      "clublink": "Aktionssch\u00fctzen Spandau",
      "position": {
        "lat": 52.5579681,
        "lng": 13.1961098
      },
      "mailaddress": "",
      "address": "Kronprinzenstra\u00dfe 7 b ",
      "webpage": "",
      "clubname": "Aktionssch\u00fctzen Spandau"
    },
    {
      "phonenumber": "03343/952 880",
      "postcode": "13001 Berlin",
      "clublink": "Motorsportclub Auto Mobil Berlin e. V.",
      "position": {
        "lat": 52.5160713196,
        "lng": 13.3769798279
      },
      "mailaddress": "MC-Automobil-Berlin@gmx.de",
      "address": "Postfach 770 155 ",
      "webpage": "www.:// mc-automobil-berlin.de/",
      "clubname": "Motorsportclub Auto Mobil Berlin e. V."
    },
    {
      "phonenumber": "016097792336",
      "postcode": "13189 Berlin",
      "clublink": "Aufschwung Pankow",
      "position": {
        "lat": 52.5580101,
        "lng": 13.4143105
      },
      "mailaddress": "",
      "address": "Westerlandstra\u00dfe 19 ",
      "webpage": "",
      "clubname": "Aufschwung Pankow"
    },
    {
      "phonenumber": "015773351290",
      "postcode": "13587 Berlin",
      "clublink": "Turn Club Glimmer",
      "position": {
        "lat": 52.5641899,
        "lng": 13.2097998
      },
      "mailaddress": "niko.dokic@googlemail.com",
      "address": "Streitstra\u00dfe 35 c ",
      "webpage": "www.tcglimmer.de",
      "clubname": "Turn Club Glimmer"
    },
    {
      "phonenumber": "8502 2290",
      "postcode": "10963 Berlin",
      "clublink": "ERGOsports Berlin",
      "position": {
        "lat": 52.5068283,
        "lng": 13.3790102
      },
      "mailaddress": "",
      "address": "Stresemannstra\u00dfe 111 ",
      "webpage": "",
      "clubname": "ERGOsports Berlin"
    },
    {
      "phonenumber": "01777034945",
      "postcode": "12107 Berlin",
      "clublink": "Fu\u00dfball-Club Grunewald 1957 e. V.",
      "position": {
        "lat": 52.4346085,
        "lng": 13.3829298
      },
      "mailaddress": "ThorstenWoelkexx@aol.com",
      "address": "Fritz-Werner-Stra\u00dfe 46 a ",
      "webpage": "www.fcgrunewald.de",
      "clubname": "Fu\u00dfball-Club Grunewald 1957 e. V."
    },
    {
      "phonenumber": "21307136",
      "postcode": "10245 Berlin",
      "clublink": "Wasserrettungsdienst im ASB Landesverband Berlin",
      "position": {
        "lat": 52.5042801,
        "lng": 13.4527302
      },
      "mailaddress": "fdl-wrd@asb-berlin.de",
      "address": "Rudolfstra\u00dfe 9 ",
      "webpage": "www.asb-berlin.de/wrd",
      "clubname": "Wasserrettungsdienst im ASB Landesverband Berlin"
    },
    {
      "phonenumber": "4327326",
      "postcode": "13507 Berlin",
      "clublink": "Anglerverein Posenkieker 1912",
      "position": {
        "lat": 52.5778313,
        "lng": 13.2729797
      },
      "mailaddress": "posenkieker-berlin@t-online.de",
      "address": "Uferweg ",
      "webpage": "posenkieker-berlin.de",
      "clubname": "Anglerverein Posenkieker 1912"
    },
    {
      "phonenumber": "6811133",
      "postcode": "12355 Berlin",
      "clublink": "Radfahrerverein Blitz Neuk\u00f6lln",
      "position": {
        "lat": 52.4176483,
        "lng": 13.5095997
      },
      "mailaddress": "a-henze@t-online.de",
      "address": "Schirpitzer Weg 7 ",
      "webpage": "www.berlin-radsport.de/vereine/blitzneukoelln",
      "clubname": "Radfahrerverein Blitz Neuk\u00f6lln"
    },
    {
      "phonenumber": "",
      "postcode": "12355 Berlin",
      "clublink": "Spandauer Fu\u00dfball-Club Veritas 1996 Berlin e. V.",
      "position": {
        "lat": 52.4180984,
        "lng": 13.5077
      },
      "mailaddress": "",
      "address": "Benatzkyweg 34 ",
      "webpage": "www.fcveritas.de",
      "clubname": "Spandauer Fu\u00dfball-Club Veritas 1996 Berlin e. V."
    },
    {
      "phonenumber": "3624491",
      "postcode": "13593 Berlin",
      "clublink": "Tennisclub Hohengatow e.V.",
      "position": {
        "lat": 52.5118408,
        "lng": 13.1765099
      },
      "mailaddress": "b.gri@web.de",
      "address": "Falstaffweg 20 ",
      "webpage": "",
      "clubname": "Tennisclub Hohengatow e.V."
    },
    {
      "phonenumber": "3322214047",
      "postcode": "14612 Falkensee",
      "clublink": "BSG Greenhorn 72",
      "position": {
        "lat": 52.5586586,
        "lng": 13.07306
      },
      "mailaddress": "rainer.von.kornatzky@web.de",
      "address": "Rotkehlchenstra\u00dfe 23 c ",
      "webpage": "",
      "clubname": "BSG Greenhorn 72"
    },
    {
      "phonenumber": "76766265",
      "postcode": "12207 Berlin",
      "clublink": "Sch\u00fctzenteam 'Guns & More Team' e. V.",
      "position": {
        "lat": 52.4195518,
        "lng": 13.3062201
      },
      "mailaddress": "gmteam@web.de",
      "address": "Ostpreu\u00dfendamm 75 ",
      "webpage": "",
      "clubname": "Sch\u00fctzenteam 'Guns & More Team' e. V."
    },
    {
      "phonenumber": "7518008",
      "postcode": "12109 Berlin",
      "clublink": "Tauchsport-Club Berlin e.V.",
      "position": {
        "lat": 52.4456902,
        "lng": 13.3936901
      },
      "mailaddress": "Vorstand@tcb-berlin.de",
      "address": "Westphalweg 10 ",
      "webpage": "www.TCB-Berlin.de",
      "clubname": "Tauchsport-Club Berlin e.V."
    },
    {
      "phonenumber": "6248959",
      "postcode": "10437 Berlin",
      "clublink": "Knallrot Wilmersdorf e. V.",
      "position": {
        "lat": 52.5435295,
        "lng": 13.4147501
      },
      "mailaddress": "carsten.lilie@web.de",
      "address": "Pappelallee 76 ",
      "webpage": "www.knallrot.org",
      "clubname": "Knallrot Wilmersdorf e. V."
    },
    {
      "phonenumber": "80906244",
      "postcode": "14169 Berlin",
      "clublink": "Berliner Rugby-Club e. V.",
      "position": {
        "lat": 52.43787,
        "lng": 13.25879
      },
      "mailaddress": "office@berliner-rugby-club.de",
      "address": "Scharfestr. 12 ",
      "webpage": "www.berliner-rugby-club.de",
      "clubname": "Berliner Rugby-Club e. V."
    },
    {
      "phonenumber": "726 12 80 72",
      "postcode": "12209 Berlin",
      "clublink": "Finnegan's e. V.",
      "position": {
        "lat": 52.4106903,
        "lng": 13.3400602
      },
      "mailaddress": "finnsforfun@freenet.de",
      "address": "Jenbacher Weg 14 ",
      "webpage": "",
      "clubname": "Finnegan's e. V."
    },
    {
      "phonenumber": "3342424181",
      "postcode": "15366 Hoppegarten",
      "clublink": "Sch\u00fctzenverein Mahlsdorf e. V.",
      "position": {
        "lat": 52.5392113,
        "lng": 13.6416197
      },
      "mailaddress": "SvMahlsdorf@t-online.de",
      "address": "Nu\u00dfbaumweg 14 ",
      "webpage": "",
      "clubname": "Sch\u00fctzenverein Mahlsdorf e. V."
    },
    {
      "phonenumber": "4664976107",
      "postcode": "12689 Berlin",
      "clublink": "Volleypopverein Ahrensfelde e. V.",
      "position": {
        "lat": 52.5685806,
        "lng": 13.5672598
      },
      "mailaddress": "dirkundkerstin@gmx.de",
      "address": "Fl\u00e4mingstr. 113 ",
      "webpage": "",
      "clubname": "Volleypopverein Ahrensfelde e. V."
    },
    {
      "phonenumber": "",
      "postcode": "13158 Berlin",
      "clublink": "Toyama e. V.",
      "position": {
        "lat": 52.5897217,
        "lng": 13.3901901
      },
      "mailaddress": "torukosv@yahoo.de",
      "address": "Taufsteinweg 17 ",
      "webpage": "",
      "clubname": "Toyama e. V."
    },
    {
      "phonenumber": "40 58 65 21",
      "postcode": "13467 Berlin",
      "clublink": "Sport Club Tegeler Forst e. V.",
      "position": {
        "lat": 52.6216202,
        "lng": 13.3081398
      },
      "mailaddress": "info@sc-tegeler-forst.de",
      "address": "Hermsdorfer Damm 199 ",
      "webpage": "www.lgnord.de",
      "clubname": "Sport Club Tegeler Forst e. V."
    },
    {
      "phonenumber": "38304470",
      "postcode": "13629 Berlin",
      "clublink": "BSG Robert Bosch Berlin",
      "position": {
        "lat": 52.5363083,
        "lng": 13.27213
      },
      "mailaddress": "a.g.Berlin@t-online.de",
      "address": "Siemensdamm 47 ",
      "webpage": "",
      "clubname": "BSG Robert Bosch Berlin"
    },
    {
      "phonenumber": "949 78 25",
      "postcode": "13125 Berlin",
      "clublink": "Sportverein Berlin-Buch",
      "position": {
        "lat": 52.6248398,
        "lng": 13.4967899
      },
      "mailaddress": "sjcbuch@gmx.de",
      "address": "Karower Chaussee 169 c ",
      "webpage": "www.svberlin-buch.de",
      "clubname": "Sportverein Berlin-Buch"
    },
    {
      "phonenumber": "6056335",
      "postcode": "12353 Berlin",
      "clublink": "Sportsch\u00fctzen Buckow e. V.",
      "position": {
        "lat": 52.4211006,
        "lng": 13.4451799
      },
      "mailaddress": "",
      "address": "Renschweg 11 ",
      "webpage": "",
      "clubname": "Sportsch\u00fctzen Buckow e. V."
    },
    {
      "phonenumber": "372 68 11",
      "postcode": "12279 Berlin",
      "clublink": "Wassersportverein Helios e. V.",
      "position": {
        "lat": 52.4104996,
        "lng": 13.3558502
      },
      "mailaddress": "diemarienfelder@web.de",
      "address": "Tirschenreuther Ring 74 ",
      "webpage": "http://www.wv-helios.de",
      "clubname": "Wassersportverein Helios e. V."
    },
    {
      "phonenumber": "754448980",
      "postcode": "12207 Berlin",
      "clublink": "FC Viktoria 1889 Berlin Lichterfelde-Tempelhof e. V.",
      "position": {
        "lat": 52.4367294,
        "lng": 13.3218098
      },
      "mailaddress": "info@viktoria-berlin.de",
      "address": "Krahmerstra\u00dfe 15 ",
      "webpage": "www.viktoria-berlin.de",
      "clubname": "FC Viktoria 1889 Berlin Lichterfelde-Tempelhof e. V."
    },
    {
      "phonenumber": "34095074",
      "postcode": "10585 Berlin",
      "clublink": "GRP Gesundheitsvorsorge Rehabilitation und Patientenrechte e. V.",
      "position": {
        "lat": 52.5164604,
        "lng": 13.3069897
      },
      "mailaddress": "grpev@aol.com",
      "address": "Richard-Wagner-Stra\u00dfe 52 ",
      "webpage": "",
      "clubname": "GRP Gesundheitsvorsorge Rehabilitation und Patientenrechte e. V."
    },
    {
      "phonenumber": "42088497",
      "postcode": "10318 Berlin",
      "clublink": "Studenten Badminton Team Berlin e. V.",
      "position": {
        "lat": 52.4802399,
        "lng": 13.5222902
      },
      "mailaddress": "o.ebersbach@gmx.de",
      "address": "Heiligenberger Stra\u00dfe 9 ",
      "webpage": "www.club.isbt.de",
      "clubname": "Studenten Badminton Team Berlin e. V."
    },
    {
      "phonenumber": "822 08 64",
      "postcode": "14197 Berlin",
      "clublink": "Kneippverein Berlin e. V.",
      "position": {
        "lat": 52.4775391,
        "lng": 13.3133898
      },
      "mailaddress": "info@kneipp-verein-berlin.de",
      "address": "A\u00dfmannshauser Stra\u00dfe 23 a ",
      "webpage": "www.kneipp-berlin.de",
      "clubname": "Kneippverein Berlin e. V."
    },
    {
      "phonenumber": "6045566",
      "postcode": "12353 Berlin",
      "clublink": "Berliner Sport-Verein Gr\u00fcn-Wei\u00df Neuk\u00f6lln e. V.",
      "position": {
        "lat": 52.4268799,
        "lng": 13.4496899
      },
      "mailaddress": "gruen-weiss-neukoelln@t-online.de",
      "address": "Wermuthweg 26 ",
      "webpage": "www.gruen-weiss-neukoelln.de",
      "clubname": "Berliner Sport-Verein Gr\u00fcn-Wei\u00df Neuk\u00f6lln e. V."
    },
    {
      "phonenumber": "4318985",
      "postcode": "13503 Berlin",
      "clublink": "Club de P\ufffdche e. V.",
      "position": {
        "lat": 52.6115494,
        "lng": 13.2341299
      },
      "mailaddress": "",
      "address": "Im Rehgrund 20 ",
      "webpage": "",
      "clubname": "Club de P\ufffdche e. V."
    },
    {
      "phonenumber": "4624100",
      "postcode": "13357 Berlin",
      "clublink": "Turn- und Sportverein Berlin Wedding 1862 e.V.",
      "position": {
        "lat": 52.5497017,
        "lng": 13.37216
      },
      "mailaddress": "kontakt@tsv-wedding.de",
      "address": "Uferstra\u00dfe 18 ",
      "webpage": "www.tsv-wedding.de",
      "clubname": "Turn- und Sportverein Berlin Wedding 1862 e.V."
    },
    {
      "phonenumber": "31504578",
      "postcode": "10625 Berlin",
      "clublink": "Interessengemeinschaft Tauchen e. V.",
      "position": {
        "lat": 52.5077782,
        "lng": 13.31705
      },
      "mailaddress": "webmaster@ig-tauchen.org",
      "address": "Pestalozzistra\u00dfe 9 a ",
      "webpage": "www.ig-tauchen.org",
      "clubname": "Interessengemeinschaft Tauchen e. V."
    },
    {
      "phonenumber": "",
      "postcode": "12534 Berlin",
      "clublink": "Qwan Ki Do Berlin-K\u00f6penick e.V.",
      "position": {
        "lat": 52.5160713196,
        "lng": 13.3769798279
      },
      "mailaddress": "vorstand@qwankidoberlin.de",
      "address": "Postfach 84 04 12 ",
      "webpage": "www.qwankidoberlin.de",
      "clubname": "Qwan Ki Do Berlin-K\u00f6penick e.V."
    },
    {
      "phonenumber": "78485606",
      "postcode": "10829 Berlin",
      "clublink": "Yama e. V.",
      "position": {
        "lat": 52.4791985,
        "lng": 13.3485498
      },
      "mailaddress": "info@yama-karate.de",
      "address": "Ebersstra\u00dfe 35 ",
      "webpage": "",
      "clubname": "Yama e. V."
    },
    {
      "phonenumber": "3539370",
      "postcode": "13597 Berlin",
      "clublink": "Wasserwacht im DRK Kreisverband Spandau e. V.",
      "position": {
        "lat": 52.5381508,
        "lng": 13.1964798
      },
      "mailaddress": "info@berlin-spandau.drk.de",
      "address": "Galenstra\u00dfe 29 ",
      "webpage": "drk-berlin.de",
      "clubname": "Wasserwacht im DRK Kreisverband Spandau e. V."
    },
    {
      "phonenumber": "9256716",
      "postcode": "13088 Berlin",
      "clublink": "Wei\u00dfenseer Sportverein 'Rot-Wei\u00df' e. V.",
      "position": {
        "lat": 52.5524788,
        "lng": 13.4721298
      },
      "mailaddress": "beutel@beuko-berlin.de",
      "address": "Else-Jahn-Stra\u00dfe 18 ",
      "webpage": "wsv-berlin.de",
      "clubname": "Wei\u00dfenseer Sportverein 'Rot-Wei\u00df' e. V."
    },
    {
      "phonenumber": "0172/30 64 382",
      "postcode": "12305 Berlin",
      "clublink": "Kase-Karate-Do Berlin",
      "position": {
        "lat": 52.4065208,
        "lng": 13.4088802
      },
      "mailaddress": "heiber.torsten@gmail.com",
      "address": "Griembergweg 4 ",
      "webpage": "www.Kase-Karate-Do-berlin.de",
      "clubname": "Kase-Karate-Do Berlin"
    },
    {
      "phonenumber": "8833912",
      "postcode": "10719 Berlin",
      "clublink": "Billard-Club International e. V.",
      "position": {
        "lat": 52.5015793,
        "lng": 13.3215103
      },
      "mailaddress": "",
      "address": "Knesebeckstra\u00dfe 38 - 49 ",
      "webpage": "",
      "clubname": "Billard-Club International e. V."
    },
    {
      "phonenumber": "030 50969671",
      "postcode": "10367 Berlin",
      "clublink": "Lichtenberger Tennisclub e. V.",
      "position": {
        "lat": 52.5211716,
        "lng": 13.4832897
      },
      "mailaddress": "webmaster@lichtenberger-tennisclub.de",
      "address": "Bornitzstra\u00dfe 17 ",
      "webpage": "www.lichtenberger-tennisclub.de",
      "clubname": "Lichtenberger Tennisclub e. V."
    },
    {
      "phonenumber": "017663402303",
      "postcode": "10318 Berlin",
      "clublink": "Sibirskij Wjun (Filiale Sibirische Winde) e. V.",
      "position": {
        "lat": 52.4904709,
        "lng": 13.53965
      },
      "mailaddress": "wjun.berlin@gmx.de",
      "address": "Zwieseler Stra\u00dfe 62 ",
      "webpage": "www.berlin.sibirskij-wjun.de",
      "clubname": "Sibirskij Wjun (Filiale Sibirische Winde) e. V."
    },
    {
      "phonenumber": "0172/831 50 26",
      "postcode": "10625 Berlin",
      "clublink": "Squash-Club Fit-Fun Berlin e. V.",
      "position": {
        "lat": 52.5107803,
        "lng": 13.3175201
      },
      "mailaddress": "info@squashclub-fitfun.de",
      "address": "Schillerstr. 110 ",
      "webpage": "www.squashclub-fitfun.de",
      "clubname": "Squash-Club Fit-Fun Berlin e. V. "
    },
    {
      "phonenumber": "01743235679",
      "postcode": "12351 Berlin",
      "clublink": "Reitsportgemeinschaft Buckower Feldmark e. V.",
      "position": {
        "lat": 52.4243317,
        "lng": 13.4407043
      },
      "mailaddress": "marco@marabu-bar.de",
      "address": "Johannisthaler Chaussee 421 ",
      "webpage": "rsg-buckower-feldmark.de",
      "clubname": "Reitsportgemeinschaft Buckower Feldmark e. V."
    },
    {
      "phonenumber": "40304871",
      "postcode": "13465 Berlin",
      "clublink": "Fechtsport Club Berlin e.V.",
      "position": {
        "lat": 52.6315193,
        "lng": 13.27985
      },
      "mailaddress": "mail@fechtsport-club-berlin.de",
      "address": "Benediktinerstra\u00dfe 34 ",
      "webpage": "www.fechtsport-club-berlin.de",
      "clubname": "Fechtsport Club Berlin e.V."
    },
    {
      "phonenumber": "01718344397",
      "postcode": "14197 Berlin",
      "clublink": "Aikido-Wirbel Berlin e.V.",
      "position": {
        "lat": 52.4691696,
        "lng": 13.3136797
      },
      "mailaddress": "detlef-meissner@web.de",
      "address": "S\u00fcdwestkorso 32 ",
      "webpage": "www.aikido-wirbel-wedding.de",
      "clubname": "Aikido-Wirbel Berlin e.V."
    },
    {
      "phonenumber": "01723071966",
      "postcode": "16356 Ahrensfelde",
      "clublink": "Volleyball-Freunde Berlin-Hohensch\u00f6nhausen e. V.",
      "position": {
        "lat": 52.5938606,
        "lng": 13.5389404
      },
      "mailaddress": "hardy.fraesdorf@t-online.de",
      "address": "Steinstra\u00dfe 33 ",
      "webpage": "",
      "clubname": "Volleyball-Freunde Berlin-Hohensch\u00f6nhausen e. V."
    },
    {
      "phonenumber": "01749998020",
      "postcode": "10779 Berlin",
      "clublink": "BSG BVG Cicero",
      "position": {
        "lat": 52.4920998,
        "lng": 13.3447704
      },
      "mailaddress": "Glystra@kabelmail.de",
      "address": "Barbarossastra\u00dfe 47 ",
      "webpage": "",
      "clubname": "BSG BVG Cicero"
    },
    {
      "phonenumber": "2947113",
      "postcode": "10243 Berlin",
      "clublink": "Ruths Gymnastikgruppe e. V.",
      "position": {
        "lat": 52.5137787,
        "lng": 13.4408703
      },
      "mailaddress": "ruths.gymnastikgruppe@gmx.de",
      "address": "Stra\u00dfe der Pariser Kommune 22 ",
      "webpage": "",
      "clubname": "Ruths Gymnastikgruppe e. V."
    },
    {
      "phonenumber": "01511-7893541",
      "postcode": "16515 Z\u00fchlsdorf",
      "clublink": "Tennissportgemeinschaft Break 90 e. V.",
      "position": {
        "lat": 52.7318001,
        "lng": 13.3899498
      },
      "mailaddress": "TSG_Break90@gmx.de",
      "address": "Dorfstra\u00dfe 24 ",
      "webpage": "www.break90.de",
      "clubname": "Tennissportgemeinschaft Break 90 e. V."
    },
    {
      "phonenumber": "493040693975",
      "postcode": "13407 Berlin",
      "clublink": "Taekwon-Do-Verein Berlin-Charlottenburg e. V.",
      "position": {
        "lat": 52.5713615,
        "lng": 13.3587599
      },
      "mailaddress": "",
      "address": "Rohrschacher Zeile 10 ",
      "webpage": "www.berliner-taekwondo-verein.de",
      "clubname": "Taekwon-Do-Verein Berlin-Charlottenburg e. V."
    },
    {
      "phonenumber": "806243294",
      "postcode": "14109 Berlin",
      "clublink": "BSG Helmholtz-Zentrum Berlin (BSG-HZB) e. V.",
      "position": {
        "lat": 52.4111824,
        "lng": 13.1298628
      },
      "mailaddress": "betriebssport@helmholtz-berlin.de",
      "address": "Hahn-Meitner-Platz 1 ",
      "webpage": "www.helmholtz-berlin.de",
      "clubname": "BSG Helmholtz-Zentrum Berlin (BSG-HZB) e. V."
    },
    {
      "phonenumber": "3063905070",
      "postcode": "12487 Berlin",
      "clublink": "Gesundheits- und Familiensportverein Berlin Johannisthal e. V.",
      "position": {
        "lat": 52.4506798,
        "lng": 13.5084295
      },
      "mailaddress": "familyfit@gmx.net",
      "address": "Sterndamm 35 ",
      "webpage": "",
      "clubname": "Gesundheits- und Familiensportverein Berlin Johannisthal e. V."
    },
    {
      "phonenumber": "9339571",
      "postcode": "12679 Berlin",
      "clublink": "Bushido Dojo Berlin e. V.",
      "position": {
        "lat": 52.5481682,
        "lng": 13.56709
      },
      "mailaddress": "dirk@bushido-dojo.de",
      "address": "Grohsteig 3 ",
      "webpage": "www.bushido-dojo.de",
      "clubname": "Bushido Dojo Berlin e. V."
    },
    {
      "phonenumber": "60922491",
      "postcode": "13187 Berlin",
      "clublink": "Federballclub Neuwestend",
      "position": {
        "lat": 52.5604095,
        "lng": 13.4103298
      },
      "mailaddress": "ukuschel@yahoo.de",
      "address": "Zillertalstra\u00dfe 53 ",
      "webpage": "",
      "clubname": "Federballclub Neuwestend"
    },
    {
      "phonenumber": "8844040",
      "postcode": "10623 Berlin",
      "clublink": "Tischtennisclub Verein ohne Namen (TTC VoN) e. V.",
      "position": {
        "lat": 52.5023499,
        "lng": 13.3198004
      },
      "mailaddress": "aj@ra-je.de",
      "address": "Bleibtreustra\u00dfe 38 ",
      "webpage": "",
      "clubname": "Tischtennisclub Verein ohne Namen (TTC VoN) e. V."
    },
    {
      "phonenumber": "81828477",
      "postcode": "13086 Berlin",
      "clublink": "ABADA-Capoeira Berlin e. V.",
      "position": {
        "lat": 52.54953,
        "lng": 13.44979
      },
      "mailaddress": "info@capoeira-berlin.com",
      "address": "Langhansstr. 5b  ",
      "webpage": "www.capoeira-berlin.com",
      "clubname": "ABADA-Capoeira Berlin e. V."
    },
    {
      "phonenumber": "7525688",
      "postcode": "12169 Berlin",
      "clublink": "Pool Billard Club 77 Viktoria Berlin e. V.",
      "position": {
        "lat": 52.4499588,
        "lng": 13.3507099
      },
      "mailaddress": "",
      "address": "Steglitzer Damm 81 a ",
      "webpage": "",
      "clubname": "Pool Billard Club 77 Viktoria Berlin e. V."
    },
    {
      "phonenumber": "86409550",
      "postcode": "10715 Berlin",
      "clublink": "Sport- und Rettungstauchverein Berlin e.V.",
      "position": {
        "lat": 52.4821815,
        "lng": 13.3259001
      },
      "mailaddress": "vorstand@srtv.de",
      "address": "Livl\u00e4ndische Str.8 ",
      "webpage": "www.srtv.de",
      "clubname": "Sport- und Rettungstauchverein Berlin e.V."
    },
    {
      "phonenumber": "75706832",
      "postcode": "13503 Berlin",
      "clublink": "Freier Akademischer Sportverein Siegmundshof e. V.",
      "position": {
        "lat": 52.62603,
        "lng": 13.2332897
      },
      "mailaddress": "info@fass-berlin.de",
      "address": "B\u00fcssower Weg 14 ",
      "webpage": "www.fass-berlin.de",
      "clubname": "Freier Akademischer Sportverein Siegmundshof e. V."
    },
    {
      "phonenumber": "3455652",
      "postcode": "13627 Berlin",
      "clublink": "Verein f\u00fcr Leibes\u00fcbungen Zehlendorf e. V.",
      "position": {
        "lat": 52.5367088,
        "lng": 13.3038397
      },
      "mailaddress": "i.blumensaat@vfl-zehlendorf.de",
      "address": "Leuningerpfad 5 ",
      "webpage": "www.vfl-zehlendorf.de",
      "clubname": "Verein f\u00fcr Leibes\u00fcbungen Zehlendorf e. V."
    },
    {
      "phonenumber": "01607007407",
      "postcode": "13439 Berlin",
      "clublink": "BSG Strabag SE 67",
      "position": {
        "lat": 52.5987282,
        "lng": 13.3579702
      },
      "mailaddress": "bsgstrabagse67@zueblin.de",
      "address": "Senftenberger Ring 14 ",
      "webpage": "",
      "clubname": "BSG Strabag SE 67"
    },
    {
      "phonenumber": "8032212",
      "postcode": "14129 Berlin",
      "clublink": "TTC-D\u00fcppel e. V.",
      "position": {
        "lat": 52.4298096,
        "lng": 13.20296
      },
      "mailaddress": "klauslietzau@web.de",
      "address": "Schopenhauerstra\u00dfe 93 m ",
      "webpage": "",
      "clubname": "TTC-D\u00fcppel e. V."
    },
    {
      "phonenumber": "304 80 05",
      "postcode": "14055 Berlin",
      "clublink": "Klub am Rupenhorn e. V.",
      "position": {
        "lat": 52.5050201,
        "lng": 13.2107201
      },
      "mailaddress": "info@kar-berlin.de",
      "address": "Havelchaussee 119 ",
      "webpage": "www.kar-berlin.de",
      "clubname": "Klub am Rupenhorn e. V."
    },
    {
      "phonenumber": "705 41 28",
      "postcode": "12107 Berlin",
      "clublink": "Sport Club Nest '73",
      "position": {
        "lat": 52.4405708,
        "lng": 13.39112
      },
      "mailaddress": "lothar.nest@t-online.de",
      "address": "Alt-Mariendorf 19 ",
      "webpage": "www.Lothar-Nest.de",
      "clubname": "Sport Club Nest '73"
    },
    {
      "phonenumber": "01743913345",
      "postcode": "12527 Berlin",
      "clublink": "1. K\u00f6penicker Drachenboot e. V.",
      "position": {
        "lat": 52.4096184,
        "lng": 13.60215
      },
      "mailaddress": "captain@spreepointdragons.de",
      "address": "Sportpromenade 3 ",
      "webpage": "www.spreepointdragons.de",
      "clubname": "1. K\u00f6penicker Drachenboot e. V."
    },
    {
      "phonenumber": "0171-4813443",
      "postcode": "13125 Berlin",
      "clublink": "Wicko e. V.",
      "position": {
        "lat": 52.6094894,
        "lng": 13.4817896
      },
      "mailaddress": "kontakt@i-shin.de",
      "address": "Alt-Karow 3 ",
      "webpage": "www.i-shin.de",
      "clubname": "Wicko e. V."
    },
    {
      "phonenumber": "017622703526",
      "postcode": "13409 Berlin",
      "clublink": "M\u00e4rkischer Sport Club e. V.",
      "position": {
        "lat": 52.5653992,
        "lng": 13.3729401
      },
      "mailaddress": "lothar.klt@o2online.de",
      "address": "Reginhardstra\u00dfe 99 ",
      "webpage": "www.maerkischer-sc.de",
      "clubname": "M\u00e4rkischer Sport Club e. V."
    },
    {
      "phonenumber": "61670512",
      "postcode": "12161 Berlin",
      "clublink": "Segel-Club Gatow e. V.",
      "position": {
        "lat": 52.4751091,
        "lng": 13.32728
      },
      "mailaddress": "am.beckert@t-online.de",
      "address": "Bachestra\u00dfe 3 ",
      "webpage": "",
      "clubname": "Segel-Club Gatow e. V."
    },
    {
      "phonenumber": "805 36 72",
      "postcode": "14091 Berlin",
      "clublink": "Tennis Club Wei\u00dfe B\u00e4ren Wannsee e.V.",
      "position": {
        "lat": 52.5160713196,
        "lng": 13.3769798279
      },
      "mailaddress": "",
      "address": "Postfach 39 01 55 ",
      "webpage": "www.weisse-baeren.de",
      "clubname": "Tennis Club Wei\u00dfe B\u00e4ren Wannsee e.V."
    },
    {
      "phonenumber": "2512591",
      "postcode": "10997 Berlin",
      "clublink": "Verein f\u00fcr Bewegungskunst e. V.",
      "position": {
        "lat": 52.4994583,
        "lng": 13.4342699
      },
      "mailaddress": "bewegungskuenste@web.de",
      "address": "Skalitzer Stra\u00dfe 51 ",
      "webpage": "",
      "clubname": "Verein f\u00fcr Bewegungskunst e. V."
    },
    {
      "phonenumber": "3738763",
      "postcode": "13589  Berlin",
      "clublink": "Reit- und Fahrverein 'Am Berg' e. V.",
      "position": {
        "lat": 52.5524292,
        "lng": 13.1500397
      },
      "mailaddress": "",
      "address": "Am Finkenherd 45 ",
      "webpage": "",
      "clubname": "Reit- und Fahrverein 'Am Berg' e. V."
    },
    {
      "phonenumber": "030/3314886",
      "postcode": "13581 Berlin",
      "clublink": "Spandauer Schachverein e. V.",
      "position": {
        "lat": 52.5297318,
        "lng": 13.1977797
      },
      "mailaddress": "willi_grimm@freenet.de",
      "address": "Stra\u00dfburger Stra\u00dfe 36 ",
      "webpage": "willi_grimm@freenet.de",
      "clubname": "Spandauer Schachverein e. V."
    },
    {
      "phonenumber": "01797051300",
      "postcode": "10715 Berlin",
      "clublink": "Turn-Club 69 Berlin-Wilmersdorf e. V.",
      "position": {
        "lat": 52.4849701,
        "lng": 13.3296099
      },
      "mailaddress": "proepstars@googlemail.com",
      "address": "Wilhelmsaue 136 ",
      "webpage": "www.tc-69-berlin.de",
      "clubname": "Turn-Club 69 Berlin-Wilmersdorf e. V."
    },
    {
      "phonenumber": "030/5326996",
      "postcode": "12437 Berlin",
      "clublink": "K\u00f6penicker Sportfischer Verein e. V.",
      "position": {
        "lat": 52.4666901,
        "lng": 13.4829397
      },
      "mailaddress": "heidi.moewes@ksv-ev.de",
      "address": "Rinkartstra\u00dfe 16 ",
      "webpage": "www.ksv-ev.de",
      "clubname": "K\u00f6penicker Sportfischer Verein e. V."
    },
    {
      "phonenumber": "35503430",
      "postcode": "13587 Berlin",
      "clublink": "SEI-WA-KAI e. V.",
      "position": {
        "lat": 52.5661201,
        "lng": 13.2119799
      },
      "mailaddress": "manfred_war@arcor.de",
      "address": "Werderstra\u00dfe 26 f ",
      "webpage": "",
      "clubname": "SEI-WA-KAI e. V."
    },
    {
      "phonenumber": "8594919",
      "postcode": "12163 Berlin",
      "clublink": "Yachtclub M\u00fcggelsee e. V.",
      "position": {
        "lat": 52.459301,
        "lng": 13.31633
      },
      "mailaddress": "klaus.scherbel@t-online.de",
      "address": "Lepsiusstra\u00dfe 77 ",
      "webpage": "www.ycm-berlin.de",
      "clubname": "Yachtclub M\u00fcggelsee e. V."
    },
    {
      "phonenumber": "345 08 804",
      "postcode": "10585 Berlin",
      "clublink": "AlpinClub Berlin e. V.",
      "position": {
        "lat": 52.5130081,
        "lng": 13.3038597
      },
      "mailaddress": "alpinclub.berlin@t-online.de",
      "address": "Spielhagenstra\u00dfe 4 ",
      "webpage": "www.alpinclub-berlin.de",
      "clubname": "AlpinClub Berlin e. V."
    },
    {
      "phonenumber": "",
      "postcode": "10249 Berlin",
      "clublink": "T.G.I. Friday's Basketball Squad e. V.",
      "position": {
        "lat": 52.5221214,
        "lng": 13.4554596
      },
      "mailaddress": "ivohellwig@web.de",
      "address": "Thaerstra\u00dfe 33 ",
      "webpage": "",
      "clubname": "T.G.I. Friday's Basketball Squad e. V."
    },
    {
      "phonenumber": "742 21 90",
      "postcode": "12305 Berlin",
      "clublink": "Budo-Club Berlin e.V.",
      "position": {
        "lat": 52.4123497,
        "lng": 13.4015198
      },
      "mailaddress": "d.rast@t-online.de",
      "address": "Lichtenrader Damm 20 ",
      "webpage": "www.bcberlin.de",
      "clubname": "Budo-Club Berlin e.V."
    },
    {
      "phonenumber": "01775240009",
      "postcode": "14612 Falkensee",
      "clublink": "Rot-Wei\u00df Spandau",
      "position": {
        "lat": 52.5627518,
        "lng": 13.0649099
      },
      "mailaddress": "vorstand@rotweissspandau.de",
      "address": "Erfurter Stra\u00dfe 18 ",
      "webpage": "www.rotweissspandau.de",
      "clubname": "Rot-Wei\u00df Spandau"
    },
    {
      "phonenumber": "41704631",
      "postcode": "13405 Berlin",
      "clublink": "Internationaler Tennis-Club Berlin e. V.",
      "position": {
        "lat": 52.5565796,
        "lng": 13.3053999
      },
      "mailaddress": "info@itc-berlin.com",
      "address": "Kurt-Schumacher-Damm 160  A ",
      "webpage": "www.itc-berlin.com",
      "clubname": "Internationaler Tennis-Club Berlin e. V."
    },
    {
      "phonenumber": "771 68 86",
      "postcode": "12247 Berlin",
      "clublink": "Tennisklub Blau-Gold Steglitz e. V.",
      "position": {
        "lat": 52.4423904,
        "lng": 13.3450098
      },
      "mailaddress": "tennis@blau-gold-steglitz.de",
      "address": "Leonorenstra\u00dfe 37-39 ",
      "webpage": "www.blau-gold-steglitz.de",
      "clubname": "Tennisklub Blau-Gold Steglitz e. V."
    },
    {
      "phonenumber": "",
      "postcode": "12587 Berlin",
      "clublink": "Inazuma-Kampfkunst-Dojo Berlin e. V.",
      "position": {
        "lat": 52.4534988,
        "lng": 13.6227102
      },
      "mailaddress": "beate@inazuma.de",
      "address": "Albert-Schweitzer-Stra\u00dfe 36 ",
      "webpage": "www.inazuma.de",
      "clubname": "Inazuma-Kampfkunst-Dojo Berlin e. V."
    },
    {
      "phonenumber": "3320131282",
      "postcode": "14624 Dallgow-D\u00f6beritz",
      "clublink": "Polo-Club Gut Seeburg e. V.",
      "position": {
        "lat": 52.5123215,
        "lng": 13.1085796
      },
      "mailaddress": "info@gut-seeburg.de",
      "address": "Am Champagnerberg, Scholle 4 ",
      "webpage": "www.gut-seeburg.de",
      "clubname": "Polo-Club Gut Seeburg e. V."
    },
    {
      "phonenumber": "",
      "postcode": "13595 Berlin",
      "clublink": "Leben in Bewegung e. V.",
      "position": {
        "lat": 52.5165291,
        "lng": 13.1973305
      },
      "mailaddress": "eckmann-berlin@arcor.de",
      "address": "Pichelsdorfer Stra\u00dfe 31 ",
      "webpage": "",
      "clubname": "Leben in Bewegung e. V."
    },
    {
      "phonenumber": "4212023",
      "postcode": "10407 Berlin",
      "clublink": "Tischtennisclub berlin eastside e. V.",
      "position": {
        "lat": 52.5313301,
        "lng": 13.4489603
      },
      "mailaddress": "kontakt@ttc-berlin-eastside.de",
      "address": "Paul-Heyse-Stra\u00dfe 25 ",
      "webpage": "www.ttc-berlin-eastside.de",
      "clubname": "Tischtennisclub berlin eastside e. V."
    },
    {
      "phonenumber": "3427324",
      "postcode": "10707 Berlin",
      "clublink": "Tanzclub royal Berlin e. V.",
      "position": {
        "lat": 52.4979782,
        "lng": 13.3102703
      },
      "mailaddress": "",
      "address": "Duisburger Stra\u00dfe 17 ",
      "webpage": "",
      "clubname": "Tanzclub royal Berlin e. V."
    },
    {
      "phonenumber": "37300370",
      "postcode": "13467 Berlin",
      "clublink": "Hermsdorfer Sport Club 1906 e. V.",
      "position": {
        "lat": 52.6100082,
        "lng": 13.3073196
      },
      "mailaddress": "",
      "address": "Boumannstr. 11-13 und 15 a ",
      "webpage": "www.hsc-berlin.de",
      "clubname": "Hermsdorfer Sport Club 1906 e. V."
    },
    {
      "phonenumber": "8055491",
      "postcode": "14109 Berlin",
      "clublink": "Lauf-Gemeinschaft Wedding e. V.",
      "position": {
        "lat": 52.4323006,
        "lng": 13.1636801
      },
      "mailaddress": "info@lgwedding.de",
      "address": "Zum Heckeshorn 56A ",
      "webpage": "www.lgwedding.de",
      "clubname": "Lauf-Gemeinschaft Wedding e. V."
    },
    {
      "phonenumber": "01743151849 oder 4590900",
      "postcode": "13409 Berlin",
      "clublink": "Berliner Sport Club Reinickendorf 21 e. V.",
      "position": {
        "lat": 52.5740509,
        "lng": 13.3675003
      },
      "mailaddress": "",
      "address": "Emmentaler Stra\u00dfe 153 ",
      "webpage": "",
      "clubname": "Berliner Sport Club Reinickendorf 21 e. V."
    },
    {
      "phonenumber": "030 - 334 62 79",
      "postcode": "10589 Berlin",
      "clublink": "Sportangler-Verein Oberhavel e. V.",
      "position": {
        "lat": 52.5291595,
        "lng": 13.30054
      },
      "mailaddress": "bliefert.wolfgang@t-online.de",
      "address": "Olbersstr. 24 ",
      "webpage": "",
      "clubname": "Sportangler-Verein Oberhavel e. V."
    },
    {
      "phonenumber": "",
      "postcode": "12621 Berlin",
      "clublink": "Turn- und Sportverein Hellersdorfer Maulw\u00fcrfe",
      "position": {
        "lat": 52.5159111,
        "lng": 13.5897198
      },
      "mailaddress": "webmaster@hellersdorfer-maulwuerfe.de",
      "address": "Hellersdorfer Str. 22 a ",
      "webpage": "www.hellersdorfer-maulwuerfe.de",
      "clubname": "Turn- und Sportverein Hellersdorfer Maulw\u00fcrfe"
    },
    {
      "phonenumber": "67891144",
      "postcode": "12529 Sch\u00f6nefeld",
      "clublink": "Versehrten Sportverein Neuk\u00f6lln e. V.",
      "position": {
        "lat": 52.3974304,
        "lng": 13.5227699
      },
      "mailaddress": "margret.hinz@gmx.de",
      "address": "Wehrmathen 28 ",
      "webpage": "",
      "clubname": "Versehrten Sportverein Neuk\u00f6lln e. V."
    },
    {
      "phonenumber": "",
      "postcode": "12623 Berlin",
      "clublink": "Fit for Physio e. V.",
      "position": {
        "lat": 52.5240097,
        "lng": 13.6293802
      },
      "mailaddress": "",
      "address": "Marderweg 15 ",
      "webpage": "",
      "clubname": "Fit for Physio e. V."
    },
    {
      "phonenumber": "01772300088",
      "postcode": "12489 Berlin",
      "clublink": "Kanusportverein Neu Ahlbeck e. V.",
      "position": {
        "lat": 52.4367218,
        "lng": 13.5583696
      },
      "mailaddress": "reginarose@arcor.de",
      "address": "Zinsgutstra\u00dfe 54 ",
      "webpage": "",
      "clubname": "Kanusportverein Neu Ahlbeck e. V."
    },
    {
      "phonenumber": "01774550918",
      "postcode": "13627 Berlin",
      "clublink": "BSG Sachverst\u00e4ndigen Zentrum Berlin (BSG SVZ Berlin)",
      "position": {
        "lat": 52.5475197,
        "lng": 13.3055201
      },
      "mailaddress": "michael.dzewas@s-v-z.de",
      "address": "Saatwinkler Damm 70 - 71 ",
      "webpage": "www.s-v-z.de",
      "clubname": "BSG Sachverst\u00e4ndigen Zentrum Berlin (BSG SVZ Berlin)"
    },
    {
      "phonenumber": "01736008140",
      "postcode": "13059 Berlin",
      "clublink": "FC Ballcelona e. V.",
      "position": {
        "lat": 52.5733986,
        "lng": 13.5162802
      },
      "mailaddress": "info@fc-ballcelona.de",
      "address": "Am Gutshof 1 a ",
      "webpage": "www.fc-ballcelona.de",
      "clubname": "FC Ballcelona e. V."
    },
    {
      "phonenumber": "69598595",
      "postcode": "13599 Berlin",
      "clublink": "Berlin T\u00fcrkspor",
      "position": {
        "lat": 52.545639,
        "lng": 13.2439203
      },
      "mailaddress": "",
      "address": "K\u00fcsterstra\u00dfe 24 ",
      "webpage": "",
      "clubname": "Berlin T\u00fcrkspor"
    },
    {
      "phonenumber": "6854643",
      "postcode": "12057 Berlin",
      "clublink": "Hansu e. V.",
      "position": {
        "lat": 52.4639397,
        "lng": 13.47118
      },
      "mailaddress": "vorstand@hansu-ev.com",
      "address": "Heinrich-Schlusnus-Stra\u00dfe 13 ",
      "webpage": "www.hansu-ev.com",
      "clubname": "Hansu e. V."
    },
    {
      "phonenumber": "92250781 / 0177-4756173",
      "postcode": "12105 Berlin",
      "clublink": "Berliner Taekwondo Club Ilyo e. V.",
      "position": {
        "lat": 52.4457016,
        "lng": 13.3845396
      },
      "mailaddress": "info@ilyo.de",
      "address": "Kaiserstra\u00dfe 111 ",
      "webpage": "www.ilyo.de",
      "clubname": "Berliner Taekwondo Club Ilyo e. V."
    },
    {
      "phonenumber": "8215665",
      "postcode": "14197 Berlin",
      "clublink": "Steglitzer Fu\u00dfball-Club Stern 1900 e. V.",
      "position": {
        "lat": 52.4669418,
        "lng": 13.3141899
      },
      "mailaddress": "stern1900@t-online.de",
      "address": "Kreuznacher Stra\u00dfe 29 ",
      "webpage": "www.stern1900.de",
      "clubname": "Steglitzer Fu\u00dfball-Club Stern 1900 e. V."
    },
    {
      "phonenumber": "",
      "postcode": "13467 Berlin",
      "clublink": "Anglerverein Goldhaken Hermsdorf e. V.",
      "position": {
        "lat": 52.6184692,
        "lng": 13.3168697
      },
      "mailaddress": "",
      "address": "Schildower Stra\u00dfe 10 ",
      "webpage": "",
      "clubname": "Anglerverein Goldhaken Hermsdorf e. V."
    },
    {
      "phonenumber": "6571238",
      "postcode": "12589 Berlin",
      "clublink": "Tennis-Club Gr\u00fcn-Wei\u00df Rahnsdorf e. V.",
      "position": {
        "lat": 52.4326096,
        "lng": 13.7173595
      },
      "mailaddress": "info@tennis-rahnsdorf.de",
      "address": "Gr\u00fcnelinder Stra\u00dfe 31 a ",
      "webpage": "www.tennis-rahnsdorf.de",
      "clubname": "Tennis-Club Gr\u00fcn-Wei\u00df Rahnsdorf e. V."
    },
    {
      "phonenumber": "76689062",
      "postcode": "12207 Berlin",
      "clublink": "Turn- und Sportverein Lichterfelde von 1887 (Berlin) e.V.",
      "position": {
        "lat": 52.4367294,
        "lng": 13.3218098
      },
      "mailaddress": "info@tusli.de",
      "address": "Krahmerstra\u00dfe 15 ",
      "webpage": "www.tusli.de",
      "clubname": "Turn- und Sportverein Lichterfelde von 1887 (Berlin) e.V."
    },
    {
      "phonenumber": "",
      "postcode": "10365 Berlin",
      "clublink": "Martial Arts Training and Repetition e. V.",
      "position": {
        "lat": 52.5132599,
        "lng": 13.49018
      },
      "mailaddress": "kontaktperson@matar-ev.de",
      "address": "Alfredstra\u00dfe 10 ",
      "webpage": "www.matar-ev.de",
      "clubname": "Martial Arts Training and Repetition e. V."
    },
    {
      "phonenumber": "753 72 47",
      "postcode": "12105 Berlin",
      "clublink": "Freizeitvolleyball Berlin e. V.",
      "position": {
        "lat": 52.4517899,
        "lng": 13.3709097
      },
      "mailaddress": "Info@Freizeitvolleyball.de",
      "address": "Attilastra\u00dfe 147 ",
      "webpage": "www.Freizeitvolleyball.de",
      "clubname": "Freizeitvolleyball Berlin e. V."
    },
    {
      "phonenumber": "",
      "postcode": "13053 Berlin",
      "clublink": "Kunstkampfsport-Club e. V.",
      "position": {
        "lat": 52.5507011,
        "lng": 13.5130396
      },
      "mailaddress": "vorstand@kung-fu-berlin.com",
      "address": "Gehrenseestra\u00dfe 4 ",
      "webpage": "www.kung-fu-berlin.com",
      "clubname": "Kunstkampfsport-Club e. V."
    },
    {
      "phonenumber": "2169026",
      "postcode": "10827 Berlin",
      "clublink": "Turnerschaft Sch\u00f6neberg e. V.",
      "position": {
        "lat": 52.4915886,
        "lng": 13.3639698
      },
      "mailaddress": "turnerschaft.schoeneberg@t-online.de",
      "address": "Gro\u00dfg\u00f6rschenstra\u00dfe 35 ",
      "webpage": "www.turnerschaft-schoeneberg.de",
      "clubname": "Turnerschaft Sch\u00f6neberg e. V."
    },
    {
      "phonenumber": "030 68326813",
      "postcode": "13089 Berlin",
      "clublink": "Sportgemeinschaft Einheit Pankow e. V.",
      "position": {
        "lat": 52.5620308,
        "lng": 13.4293003
      },